$GNTXT,01,01,02,u-blox AG - www.u-blox.com*4E
$GNTXT,01,01,02,HW UBX-M8030 00080000*60
$GNTXT,01,01,02,EXT CORE 3.01 (86c0ce)*67
$GNTXT,01,01,02,ROM BASE 3.01 (107888)*25
$GNTXT,01,01,02,FWVER=UDR 1.50*47
$GNTXT,01,01,02,PROTVER=19.20*12
$GNTXT,01,01,02,MOD=NEO-M8U-0*7C
$GNTXT,01,01,02,FIS=0xEF4015 (200061)*5D
$GNTXT,01,01,02,GPS;GLO;GAL;BDS*77
$GNTXT,01,01,02,SBAS;IMES;QZSS*49
$GNTXT,01,01,02,GNSS OTP=GPS;GLO*37
$GNTXT,01,01,02,LLC=FFFFFFFF-FFFFFFFF-FFFFFFFF-5FFFFBFE-FFFFFF49*54
$GNTXT,01,01,02,ANTSUPERV=AC *00
$GNTXT,01,01,02,ANTSTATUS=OK*25
$GNTXT,01,01,02,PF=3BF*4F
$GNRMC,000320.00,A,3141.70968,N,10627.01284,W,0.006,,010824,7.25,E,A*25
$GNVTG,,T,,M,0.006,N,0.011,K,A*3B
$GNGGA,000320.00,3141.70968,N,10627.01284,W,1,10,0.86,209.6,M,-26.3,M,,*73
$GNGSA,A,3,16,21,28,31,32,04,02,03,10,26,,,1.70,0.86,1.47*1B
$GNGSA,A,3,,,,,,,,,,,,,1.70,0.86,1.47*16
$GPGSV,3,1,11,01,,,48,02,37,259,49,03,31,320,48,04,15,279,46*41
$GPGSV,3,2,11,10,20,131,46,16,10,171,45,21,36,238,49,26,35,142,49*70
$GPGSV,3,3,11,28,53,040,51,31,90,225,54,32,27,067,47*4C
$GLGSV,1,1,00*65
$GNGLL,3141.70968,N,10627.01284,W,000320.00,A,A*6E
$GNRMC,000321.00,A,3141.71001,N,10627.01288,W,0.009,,010824,7.25,E,A*20
$GNVTG,,T,,M,0.009,N,0.017,K,A*32
$GNGGA,000321.00,3141.71001,N,10627.01288,W,1,10,0.86,209.8,M,-26.3,M,,*77
$GNGSA,A,3,16,21,28,31,32,04,02,03,10,26,,,1.70,0.86,1.47*1B
$GNGSA,A,3,,,,,,,,,,,,,1.70,0.86,1.47*16
$GPGSV,3,1,11,01,,,48,02,37,259,49,03,31,320,48,04,15,279,46*41
$GPGSV,3,2,11,10,20,131,46,16,10,171,45,21,36,238,49,26,35,142,49*70
$GPGSV,3,3,11,28,53,040,51,31,90,225,54,32,27,067,47*4C
$GLGSV,1,1,00*65
$GNGLL,3141.71001,N,10627.01288,W,000321.00,A,A*64
$GNRMC,000322.00,A,3141.71035,N,10627.01292,W,0.005,,010824,7.25,E,A*23
$GNVTG,,T,,M,0.005,N,0.008,K,A*30
$GNGGA,000322.00,3141.71035,N,10627.01292,W,1,10,0.86,210.0,M,-26.3,M,,*78
$GNGSA,A,3,16,21,28,31,32,04,02,03,10,26,,,1.70,0.86,1.47*1B
$GNGSA,A,3,,,,,,,,,,,,,1.70,0.86,1.47*16
$GPGSV,3,1,11,01,,,48,02,37,259,49,03,31,320,48,04,15,279,46*41
$GPGSV,3,2,11,10,20,131,46,16,10,171,45,21,36,238,49,26,35,142,49*70
$GPGSV,3,3,11,28,53,040,51,31,90,225,54,32,27,067,47*4C
$GLGSV,1,1,00*65
$GNGLL,3141.71035,N,10627.01292,W,000322.00,A,A*6B
$GNRMC,000323.00,A,3141.71067,N,10627.01296,W,0.002,,010824,7.25,E,A*26
$GNVTG,,T,,M,0.002,N,0.003,K,A*3C
$GNGGA,000323.00,3141.71067,N,10627.01296,W,1,10,0.86,210.2,M,-26.3,M,,*78
$GNGSA,A,3,16,21,28,31,32,04,02,03,10,26,,,1.70,0.86,1.47*1B
$GNGSA,A,3,,,,,,,,,,,,,1.70,0.86,1.47*16
$GPGSV,3,1,11,01,,,48,02,37,259,49,03,31,320,48,04,15,279,46*41
$GPGSV,3,2,11,10,20,131,46,16,10,171,45,21,36,238,49,26,35,142,49*70
$GPGSV,3,3,11,28,53,040,51,31,90,225,54,32,27,067,47*4C
$GLGSV,1,1,00*65
$GNGLL,3141.71067,N,10627.01296,W,000323.00,A,A*69
$GNRMC,000324.00,A,3141.71098,N,10627.01297,W,0.009,,010824,7.25,E,A*2B
$GNVTG,,T,,M,0.009,N,0.017,K,A*32
$GNGGA,000324.00,3141.71098,N,10627.01297,W,1,10,0.86,210.3,M,-26.3,M,,*7F
$GNGSA,A,3,16,21,28,31,32,04,02,03,10,26,,,1.70,0.86,1.47*1B
$GNGSA,A,3,,,,,,,,,,,,,1.70,0.86,1.47*16
$GPGSV,3,1,11,01,,,49,02,37,259,49,03,31,320,49,04,15,279,46*41
$GPGSV,3,2,11,10,20,131,46,16,10,171,45,21,36,238,49,26,35,142,50*78
$GPGSV,3,3,11,28,53,040,52,31,90,225,54,32,27,067,48*40
$GLGSV,1,1,00*65
$GNGLL,3141.71098,N,10627.01297,W,000324.00,A,A*6F
$GNRMC,000325.00,A,3141.71128,N,10627.01300,W,0.006,,010824,7.25,E,A*20
$GNVTG,,T,,M,0.006,N,0.011,K,A*3B
$GNGGA,000325.00,3141.71128,N,10627.01300,W,1,10,0.86,210.5,M,-26.3,M,,*7D
$GNGSA,A,3,16,21,28,31,32,04,02,03,10,26,,,1.70,0.86,1.47*1B
$GNGSA,A,3,,,,,,,,,,,,,1.70,0.86,1.47*16
$GPGSV,3,1,11,01,,,48,02,37,259,49,03,31,320,48,04,15,279,46*41
$GPGSV,3,2,11,10,20,131,46,16,10,171,45,21,36,238,49,26,35,142,49*70
$GPGSV,3,3,11,28,53,040,51,31,90,225,54,32,27,067,47*4C
$GLGSV,1,1,00*65
$GNGLL,3141.71128,N,10627.01300,W,000325.00,A,A*6B
$GNRMC,000326.00,A,3141.71158,N,10627.01300,W,0.009,,010824,7.25,E,A*2B
$GNVTG,,T,,M,0.009,N,0.016,K,A*33
$GNGGA,000326.00,3141.71158,N,10627.01300,W,1,10,0.86,210.7,M,-26.3,M,,*7B
$GNGSA,A,3,16,21,28,31,32,04,02,03,10,26,,,1.70,0.86,1.47*1B
$GNGSA,A,3,,,,,,,,,,,,,1.70,0.86,1.47*16
$GPGSV,3,1,11,01,,,48,02,37,259,49,03,31,320,48,04,15,279,46*41
$GPGSV,3,2,11,10,20,131,46,16,10,171,45,21,36,238,49,26,35,142,49*70
$GPGSV,3,3,11,28,53,040,51,31,90,225,54,32,27,067,47*4C
$GLGSV,1,1,00*65
$GNGLL,3141.71158,N,10627.01300,W,000326.00,A,A*6F
$GNRMC,000327.00,A,3141.71188,N,10627.01301,W,0.004,,010824,7.25,E,A*2B
$GNVTG,,T,,M,0.004,N,0.007,K,A*3E
$GNGGA,000327.00,3141.71188,N,10627.01301,W,1,10,0.86,210.9,M,-26.3,M,,*78
$GNGSA,A,3,16,21,28,31,32,04,02,03,10,26,,,1.70,0.86,1.47*1B
$GNGSA,A,3,,,,,,,,,,,,,1.70,0.86,1.47*16
$GPGSV,3,1,11,01,,,48,02,37,259,49,03,31,320,49,04,15,279,46*40
$GPGSV,3,2,11,10,20,131,46,16,10,171,45,21,36,238,49,26,35,142,49*70
$GPGSV,3,3,11,28,53,040,51,31,90,225,54,32,27,067,47*4C
$GLGSV,1,1,00*65
$GNGLL,3141.71188,N,10627.01301,W,000327.00,A,A*62
$GNRMC,000328.00,A,3141.71216,N,10627.01300,W,0.006,,010824,7.25,E,A*23
$GNVTG,,T,,M,0.006,N,0.012,K,A*38
$GNGGA,000328.00,3141.71216,N,10627.01300,W,1,10,0.86,211.0,M,-26.3,M,,*7A
$GNGSA,A,3,16,21,28,31,32,04,02,03,10,26,,,1.70,0.86,1.47*1B
$GNGSA,A,3,,,,,,,,,,,,,1.70,0.86,1.47*16
$GPGSV,3,1,11,01,,,49,02,37,259,49,03,31,320,48,04,15,279,46*40
$GPGSV,3,2,11,10,20,131,46,16,10,171,45,21,36,238,49,26,35,142,50*78
$GPGSV,3,3,11,28,53,040,51,31,90,225,54,32,27,067,48*43
$GLGSV,1,1,00*65
$GNGLL,3141.71216,N,10627.01300,W,000328.00,A,A*68
$GNRMC,000329.00,A,3141.71248,N,10627.01303,W,0.002,,010824,7.25,E,A*2E
$GNVTG,,T,,M,0.002,N,0.003,K,A*3C
$GNGGA,000329.00,3141.71248,N,10627.01303,W,1,10,0.86,211.2,M,-26.3,M,,*71
$GNGSA,A,3,16,21,28,31,32,04,02,03,10,26,,,1.70,0.86,1.47*1B
$GNGSA,A,3,,,,,,,,,,,,,1.70,0.86,1.47*16
$GPGSV,3,1,11,01,,,48,02,37,259,49,03,31,320,49,04,15,279,46*40
$GPGSV,3,2,11,10,20,131,46,16,10,171,44,21,36,238,49,26,35,142,49*71
$GPGSV,3,3,11,28,53,040,51,31,90,225,54,32,27,067,47*4C
$GLGSV,1,1,00*65
$GNGLL,3141.71248,N,10627.01303,W,000329.00,A,A*61
$GNRMC,000330.00,A,3141.71277,N,10627.01306,W,0.008,,010824,7.25,E,A*25
$GNVTG,,T,,M,0.008,N,0.015,K,A*31
$GNGGA,000330.00,3141.71277,N,10627.01306,W,1,10,0.86,211.4,M,-26.3,M,,*76
$GNGSA,A,3,16,21,28,31,32,04,02,03,10,26,,,1.70,0.86,1.47*1B
$GNGSA,A,3,,,,,,,,,,,,,1.70,0.86,1.47*16
$GPGSV,3,1,11,01,,,48,02,37,259,49,03,31,320,48,04,15,279,46*41
$GPGSV,3,2,11,10,20,131,46,16,10,171,45,21,36,238,48,26,35,142,49*71
$GPGSV,3,3,11,28,53,040,51,31,90,225,54,32,27,067,47*4C
$GLGSV,1,1,00*65
$GNGLL,3141.71277,N,10627.01306,W,000330.00,A,A*60
$GNRMC,000331.00,A,3141.71306,N,10627.01308,W,0.007,,010824,7.25,E,A*22
$GNVTG,,T,,M,0.007,N,0.013,K,A*38
$GNGGA,000331.00,3141.71306,N,10627.01308,W,1,10,0.86,211.6,M,-26.3,M,,*7C
$GNGSA,A,3,16,21,28,31,32,04,02,03,10,26,,,1.70,0.86,1.47*1B
$GNGSA,A,3,,,,,,,,,,,,,1.70,0.86,1.47*16
$GPGSV,3,1,11,01,,,49,02,37,259,50,03,31,320,49,04,15,279,46*49
$GPGSV,3,2,11,10,20,131,46,16,10,171,45,21,36,238,50,26,35,142,50*70
$GPGSV,3,3,11,28,53,040,52,31,90,225,54,32,27,067,48*40
$GLGSV,1,1,00*65
$GNGLL,3141.71306,N,10627.01308,W,000331.00,A,A*68
$GNRMC,000332.00,A,3141.71333,N,10627.01310,W,0.004,,010824,7.25,E,A*2D
$GNVTG,,T,,M,0.004,N,0.008,K,A*31
$GNGGA,000332.00,3141.71333,N,10627.01310,W,1,10,0.86,211.7,M,-26.3,M,,*71
$GNGSA,A,3,16,21,28,31,32,04,02,03,10,26,,,1.70,0.86,1.47*1B
$GNGSA,A,3,,,,,,,,,,,,,1.70,0.86,1.47*16
$GPGSV,3,1,11,01,,,49,02,37,259,50,03,31,320,49,04,15,280,46*4F
$GPGSV,3,2,11,10,20,131,46,16,10,171,45,21,36,238,49,26,35,142,50*78
$GPGSV,3,3,11,28,53,040,52,31,90,225,55,32,27,067,48*41
$GLGSV,1,1,00*65
$GNGLL,3141.71333,N,10627.01310,W,000332.00,A,A*64
$GNRMC,000333.00,A,3141.71358,N,10627.01313,W,0.010,,010824,7.25,E,A*27
$GNVTG,,T,,M,0.010,N,0.018,K,A*35
$GNGGA,000333.00,3141.71358,N,10627.01313,W,1,10,0.86,211.9,M,-26.3,M,,*70
$GNGSA,A,3,16,21,28,31,32,04,02,03,10,26,,,1.70,0.86,1.47*1B
$GNGSA,A,3,,,,,,,,,,,,,1.70,0.86,1.47*16
$GPGSV,3,1,12,01,,,48,02,37,259,49,03,31,320,48,04,15,280,46*44
$GPGSV,3,2,12,10,19,131,46,16,10,171,45,21,36,238,49,26,35,142,49*79
$GPGSV,3,3,12,28,53,040,51,31,90,225,54,32,27,067,47,48,43,224,34*77
$GLGSV,1,1,00*65
$GNGLL,3141.71358,N,10627.01313,W,000333.00,A,A*6B
$GNRMC,000334.00,A,3141.71385,N,10627.01315,W,0.004,,010824,7.25,E,A*23
$GNVTG,,T,,M,0.004,N,0.007,K,A*3E
$GNGGA,000334.00,3141.71385,N,10627.01315,W,1,10,0.86,212.1,M,-26.3,M,,*7A
$GNGSA,A,3,16,21,28,31,32,04,02,03,10,26,,,1.71,0.86,1.47*1A
$GNGSA,A,3,,,,,,,,,,,,,1.71,0.86,1.47*17
$GPGSV,3,1,11,01,,,48,02,37,259,48,03,31,320,48,04,15,280,45*45
$GPGSV,3,2,11,10,19,131,46,16,10,171,45,21,36,238,48,26,35,142,49*7B
$GPGSV,3,3,11,28,53,040,51,31,90,225,53,32,27,067,47*4B
$GLGSV,1,1,00*65
$GNGLL,3141.71385,N,10627.01315,W,000334.00,A,A*6A
$GNRMC,000335.00,A,3141.71412,N,10627.01316,W,0.010,,010824,7.25,E,A*2D
$GNVTG,,T,,M,0.010,N,0.019,K,A*34
$GNGGA,000335.00,3141.71412,N,10627.01316,W,1,10,0.86,212.3,M,-26.3,M,,*73
$GNGSA,A,3,16,21,28,31,32,04,02,03,10,26,,,1.71,0.86,1.47*1A
$GNGSA,A,3,,,,,,,,,,,,,1.71,0.86,1.47*17
$GPGSV,3,1,11,01,,,48,02,37,259,49,03,31,320,48,04,15,280,45*44
$GPGSV,3,2,11,10,19,131,45,16,10,171,44,21,36,238,48,26,35,142,49*79
$GPGSV,3,3,11,28,53,040,51,31,90,225,53,32,27,067,47*4B
$GLGSV,1,1,00*65
$GNGLL,3141.71412,N,10627.01316,W,000335.00,A,A*61
$GNRMC,000336.00,A,3141.71438,N,10627.01318,W,0.013,,010824,7.25,E,A*2B
$GNVTG,,T,,M,0.013,N,0.025,K,A*38
$GNGGA,000336.00,3141.71438,N,10627.01318,W,1,10,0.86,212.5,M,-26.3,M,,*70
$GNGSA,A,3,16,21,28,31,32,04,02,03,10,26,,,1.71,0.86,1.47*1A
$GNGSA,A,3,,,,,,,,,,,,,1.71,0.86,1.47*17
$GPGSV,3,1,11,01,,,49,02,37,259,49,03,31,320,49,04,15,280,46*47
$GPGSV,3,2,11,10,19,131,46,16,10,171,45,21,36,238,49,26,36,142,50*71
$GPGSV,3,3,11,28,53,040,52,31,90,225,54,32,27,067,48*40
$GLGSV,1,1,00*65
$GNGLL,3141.71438,N,10627.01318,W,000336.00,A,A*64
$GNRMC,000337.00,A,3141.71463,N,10627.01318,W,0.008,,010824,7.25,E,A*2E
$GNVTG,,T,,M,0.008,N,0.016,K,A*32
$GNGGA,000337.00,3141.71463,N,10627.01318,W,1,10,0.86,212.6,M,-26.3,M,,*7C
$GNGSA,A,3,16,21,28,31,32,04,02,03,10,26,,,1.71,0.86,1.47*1A
$GNGSA,A,3,,,,,,,,,,,,,1.71,0.86,1.47*17
$GPGSV,3,1,11,01,,,49,02,37,259,49,03,31,320,49,04,15,280,46*47
$GPGSV,3,2,11,10,19,131,46,16,10,171,45,21,36,238,49,26,36,142,49*79
$GPGSV,3,3,11,28,53,040,51,31,90,225,54,32,27,067,48*43
$GLGSV,1,1,00*65
$GNGLL,3141.71463,N,10627.01318,W,000337.00,A,A*6B
$GNRMC,000338.00,A,3141.71487,N,10627.01318,W,0.007,,010824,7.25,E,A*24
$GNVTG,,T,,M,0.007,N,0.013,K,A*38
$GNGGA,000338.00,3141.71487,N,10627.01318,W,1,10,0.86,212.8,M,-26.3,M,,*77
$GNGSA,A,3,16,21,28,31,32,04,02,03,10,26,,,1.71,0.86,1.47*1A
$GNGSA,A,3,,,,,,,,,,,,,1.71,0.86,1.47*17
$GPGSV,3,1,11,01,,,49,02,37,259,49,03,31,320,48,04,15,280,46*46
$GPGSV,3,2,11,10,19,131,46,16,10,171,45,21,36,238,49,26,36,142,49*79
$GPGSV,3,3,11,28,53,040,51,31,90,258,54,32,27,067,48*49
$GLGSV,1,1,00*65
$GNGLL,3141.71487,N,10627.01318,W,000338.00,A,A*6E
$GNRMC,000339.00,A,3141.71510,N,10627.01318,W,0.025,,010824,7.25,E,A*2A
$GNVTG,,T,,M,0.025,N,0.046,K,A*38
$GNGGA,000339.00,3141.71510,N,10627.01318,W,1,10,0.86,212.9,M,-26.3,M,,*78
$GNGSA,A,3,16,21,28,31,32,04,02,03,10,26,,,1.71,0.86,1.47*1A
$GNGSA,A,3,,,,,,,,,,,,,1.71,0.86,1.47*17
$GPGSV,3,1,11,01,,,48,02,37,259,49,03,31,320,49,04,15,280,46*46
$GPGSV,3,2,11,10,19,131,46,16,10,171,45,21,36,238,49,26,36,142,49*79
$GPGSV,3,3,11,28,53,040,51,31,90,258,54,32,27,068,47*49
$GLGSV,1,1,00*65
$GNGLL,3141.71510,N,10627.01318,W,000339.00,A,A*60
$GNRMC,000340.00,A,3141.71533,N,10627.01318,W,0.010,,010824,7.25,E,A*23
$GNVTG,,T,,M,0.010,N,0.019,K,A*34
$GNGGA,000340.00,3141.71533,N,10627.01318,W,1,10,0.86,213.0,M,-26.3,M,,*7F
$GNGSA,A,3,16,21,28,31,32,04,02,03,10,26,,,1.71,0.86,1.47*1A
$GNGSA,A,3,,,,,,,,,,,,,1.71,0.86,1.47*17
$GPGSV,3,1,11,01,,,49,02,37,259,49,03,31,320,48,04,15,280,46*46
$GPGSV,3,2,11,10,19,131,46,16,10,171,45,21,36,238,49,26,36,142,49*79
$GPGSV,3,3,11,28,53,040,51,31,90,258,54,32,27,068,48*46
$GLGSV,1,1,00*65
$GNGLL,3141.71533,N,10627.01318,W,000340.00,A,A*6F
$GNRMC,000341.00,A,3141.71556,N,10627.01319,W,0.005,,010824,7.25,E,A*24
$GNVTG,,T,,M,0.005,N,0.009,K,A*31
$GNGGA,000341.00,3141.71556,N,10627.01319,W,1,10,0.86,213.2,M,-26.3,M,,*7E
$GNGSA,A,3,16,21,28,31,32,04,02,03,10,26,,,1.71,0.86,1.47*1A
$GNGSA,A,3,,,,,,,,,,,,,1.71,0.86,1.47*17
$GPGSV,3,1,11,01,,,48,02,37,259,49,03,31,320,48,04,15,280,46*47
$GPGSV,3,2,11,10,19,131,46,16,10,171,45,21,36,238,49,26,36,142,49*79
$GPGSV,3,3,11,28,53,040,51,31,90,258,54,32,27,068,47*49
$GLGSV,1,1,00*65
$GNGLL,3141.71556,N,10627.01319,W,000341.00,A,A*6C
$GNRMC,000342.00,A,3141.71579,N,10627.01322,W,0.011,,010824,7.25,E,A*27
$GNVTG,,T,,M,0.011,N,0.021,K,A*3E
$GNGGA,000342.00,3141.71579,N,10627.01322,W,1,10,0.86,213.4,M,-26.3,M,,*7E
$GNGSA,A,3,16,21,28,31,32,04,02,03,10,26,,,1.71,0.86,1.47*1A
$GNGSA,A,3,,,,,,,,,,,,,1.71,0.86,1.47*17
$GPGSV,3,1,11,01,,,49,02,37,259,49,03,31,320,49,04,15,280,46*47
$GPGSV,3,2,11,10,19,131,46,16,10,171,45,21,36,238,49,26,36,142,49*79
$GPGSV,3,3,11,28,53,040,51,31,90,258,54,32,27,068,48*46
$GLGSV,1,1,00*65
$GNGLL,3141.71579,N,10627.01322,W,000342.00,A,A*6A
$GNRMC,000343.00,A,3141.71601,N,10627.01323,W,0.003,,010824,7.25,E,A*28
$GNVTG,,T,,M,0.003,N,0.006,K,A*38
$GNGGA,000343.00,3141.71601,N,10627.01323,W,1,10,0.86,213.5,M,-26.3,M,,*73
$GNGSA,A,3,16,21,28,31,32,04,02,03,10,26,,,1.71,0.86,1.47*1A
$GNGSA,A,3,,,,,,,,,,,,,1.71,0.86,1.47*17
$GPGSV,3,1,11,01,,,48,02,37,259,49,03,31,320,48,04,15,280,45*44
$GPGSV,3,2,11,10,19,131,46,16,10,171,45,21,36,238,49,26,36,142,49*79
$GPGSV,3,3,11,28,53,040,51,31,90,258,54,32,27,068,47*49
$GLGSV,1,1,00*65
$GNGLL,3141.71601,N,10627.01323,W,000343.00,A,A*66
$GNRMC,000344.00,A,3141.71624,N,10627.01325,W,0.012,,010824,7.25,E,A*2E
$GNVTG,,T,,M,0.012,N,0.023,K,A*3F
$GNGGA,000344.00,3141.71624,N,10627.01325,W,1,10,0.86,213.7,M,-26.3,M,,*77
$GNGSA,A,3,16,21,28,31,32,04,02,03,10,26,,,1.71,0.86,1.47*1A
$GNGSA,A,3,,,,,,,,,,,,,1.71,0.86,1.47*17
$GPGSV,3,1,11,01,,,48,02,37,259,49,03,31,320,48,04,15,280,45*44
$GPGSV,3,2,11,10,19,131,46,16,10,171,44,21,36,238,49,26,36,142,49*78
$GPGSV,3,3,11,28,53,040,51,31,90,258,53,32,27,068,47*4E
$GLGSV,1,1,00*65
$GNGLL,3141.71624,N,10627.01325,W,000344.00,A,A*60
$GNRMC,000345.00,A,3141.71645,N,10627.01327,W,0.016,,010824,7.25,E,A*2E
$GNVTG,,T,,M,0.016,N,0.029,K,A*31
$GNGGA,000345.00,3141.71645,N,10627.01327,W,1,10,0.86,213.9,M,-26.3,M,,*7D
$GNGSA,A,3,16,21,28,31,32,04,02,03,10,26,,,1.71,0.86,1.47*1A
$GNGSA,A,3,,,,,,,,,,,,,1.71,0.86,1.47*17
$GPGSV,3,1,12,01,,,48,02,37,259,49,03,31,320,49,04,15,280,46*45
$GPGSV,3,2,12,10,19,131,46,16,10,171,45,21,36,238,49,26,36,142,49*7A
$GPGSV,3,3,12,28,53,040,51,31,90,258,54,32,27,068,48,48,43,224,34*7D
$GLGSV,1,1,00*65
$GNGLL,3141.71645,N,10627.01327,W,000345.00,A,A*64
$GNRMC,000346.00,A,3141.71668,N,10627.01330,W,0.004,,010824,7.25,E,A*27
$GNVTG,,T,,M,0.004,N,0.007,K,A*3E
$GNGGA,000346.00,3141.71668,N,10627.01330,W,1,10,0.86,214.0,M,-26.3,M,,*79
$GNGSA,A,3,16,21,28,31,32,04,02,03,10,26,,,1.71,0.86,1.48*15
$GNGSA,A,3,,,,,,,,,,,,,1.71,0.86,1.48*18
$GPGSV,3,1,11,01,,,48,02,37,259,49,03,31,320,49,04,15,280,46*46
$GPGSV,3,2,11,10,19,131,46,16,10,171,45,21,36,238,49,26,36,142,49*79
$GPGSV,3,3,11,28,53,040,51,31,90,258,54,32,27,068,47*49
$GLGSV,1,1,00*65
$GNGLL,3141.71668,N,10627.01330,W,000346.00,A,A*6E
$GNRMC,000347.00,A,3141.71690,N,10627.01333,W,0.015,,010824,7.25,E,A*22
$GNVTG,,T,,M,0.015,N,0.027,K,A*3C
$GNGGA,000347.00,3141.71690,N,10627.01333,W,1,10,0.86,214.2,M,-26.3,M,,*7E
$GNGSA,A,3,16,21,28,31,32,04,02,03,10,26,,,1.71,0.86,1.48*15
$GNGSA,A,3,,,,,,,,,,,,,1.71,0.86,1.48*18
$GPGSV,3,1,11,01,,,48,02,37,259,49,03,31,320,48,04,15,280,45*44
$GPGSV,3,2,11,10,19,131,46,16,10,171,45,21,36,238,48,26,36,142,49*78
$GPGSV,3,3,11,28,53,040,51,31,90,258,53,32,27,068,47*4E
$GLGSV,1,1,00*65
$GNGLL,3141.71690,N,10627.01333,W,000347.00,A,A*6B
$GNRMC,000348.00,A,3141.71710,N,10627.01334,W,0.011,,010824,7.25,E,A*27
$GNVTG,,T,,M,0.011,N,0.021,K,A*3E
$GNGGA,000348.00,3141.71710,N,10627.01334,W,1,10,0.86,214.3,M,-26.3,M,,*7E
$GNGSA,A,3,16,21,28,31,32,04,02,03,10,26,,,1.71,0.86,1.48*15
$GNGSA,A,3,,,,,,,,,,,,,1.71,0.86,1.48*18
$GPGSV,3,1,11,01,,,49,02,37,259,49,03,31,320,49,04,15,280,46*47
$GPGSV,3,2,11,10,19,131,46,16,10,171,45,21,36,238,49,26,36,142,50*71
$GPGSV,3,3,11,28,53,040,52,31,90,258,54,32,27,068,48*45
$GLGSV,1,1,00*65
$GNGLL,3141.71710,N,10627.01334,W,000348.00,A,A*6A
$GNRMC,000349.00,A,3141.71731,N,10627.01333,W,0.012,,010824,7.25,E,A*21
$GNVTG,,T,,M,0.012,N,0.022,K,A*3E
$GNGGA,000349.00,3141.71731,N,10627.01333,W,1,10,0.86,214.5,M,-26.3,M,,*7D
$GNGSA,A,3,16,21,28,31,32,04,02,03,10,26,,,1.71,0.86,1.48*15
$GNGSA,A,3,,,,,,,,,,,,,1.71,0.86,1.48*18
$GPGSV,3,1,11,01,,,48,02,37,259,49,03,31,320,48,04,15,280,46*47
$GPGSV,3,2,11,10,19,131,46,16,10,171,45,21,36,238,49,26,36,142,49*79
$GPGSV,3,3,11,28,53,040,51,31,90,258,53,32,27,068,48*41
$GLGSV,1,1,00*65
$GNGLL,3141.71731,N,10627.01333,W,000349.00,A,A*6F
$GNRMC,000350.00,A,3141.71750,N,10627.01333,W,0.012,,010824,7.25,E,A*2E
$GNVTG,,T,,M,0.012,N,0.022,K,A*3E
$GNGGA,000350.00,3141.71750,N,10627.01333,W,1,10,0.86,214.6,M,-26.3,M,,*71
$GNGSA,A,3,16,21,28,31,32,04,02,03,10,26,,,1.71,0.86,1.48*15
$GNGSA,A,3,,,,,,,,,,,,,1.71,0.86,1.48*18
$GPGSV,3,1,11,01,,,48,02,37,259,49,03,31,320,48,04,15,280,46*47
$GPGSV,3,2,11,10,19,131,46,16,10,171,45,21,36,238,49,26,36,142,49*79
$GPGSV,3,3,11,28,53,040,51,31,90,258,54,32,27,068,48*46
$GLGSV,1,1,00*65
$GNGLL,3141.71750,N,10627.01333,W,000350.00,A,A*60
$GNRMC,000351.00,A,3141.71769,N,10627.01332,W,0.010,,010824,7.25,E,A*26
$GNVTG,,T,,M,0.010,N,0.018,K,A*35
$GNGGA,000351.00,3141.71769,N,10627.01332,W,1,10,0.86,214.8,M,-26.3,M,,*75
$GNGSA,A,3,16,21,28,31,32,04,02,03,10,26,,,1.71,0.86,1.48*15
$GNGSA,A,3,,,,,,,,,,,,,1.71,0.86,1.48*18
$GPGSV,3,1,11,01,,,48,02,37,259,49,03,31,320,49,04,15,280,46*46
$GPGSV,3,2,11,10,19,131,46,16,10,171,45,21,36,238,49,26,36,142,49*79
$GPGSV,3,3,11,28,53,040,51,31,90,258,54,32,27,068,48*46
$GLGSV,1,1,00*65
$GNGLL,3141.71769,N,10627.01332,W,000351.00,A,A*6A
$GNRMC,000352.00,A,3141.71786,N,10627.01332,W,0.010,,010824,7.25,E,A*24
$GNVTG,,T,,M,0.010,N,0.018,K,A*35
$GNGGA,000352.00,3141.71786,N,10627.01332,W,1,10,0.86,214.9,M,-26.3,M,,*76
$GNGSA,A,3,16,21,28,31,32,04,02,03,10,26,,,1.71,0.86,1.48*15
$GNGSA,A,3,,,,,,,,,,,,,1.71,0.86,1.48*18
$GPGSV,3,1,11,01,,,49,02,37,259,49,03,31,320,49,04,15,280,46*47
$GPGSV,3,2,11,10,19,131,46,16,10,171,45,21,36,238,49,26,36,142,49*79
$GPGSV,3,3,11,28,53,040,51,31,90,258,54,32,27,068,48*46
$GLGSV,1,1,00*65
$GNGLL,3141.71786,N,10627.01332,W,000352.00,A,A*68
$GNRMC,000353.00,A,3141.71804,N,10627.01333,W,0.012,,010824,7.25,E,A*23
$GNVTG,,T,,M,0.012,N,0.022,K,A*3E
$GNGGA,000353.00,3141.71804,N,10627.01333,W,1,10,0.86,215.0,M,-26.3,M,,*7B
$GNGSA,A,3,16,21,28,31,32,04,02,03,10,26,,,1.71,0.86,1.48*15
$GNGSA,A,3,,,,,,,,,,,,,1.71,0.86,1.48*18
$GPGSV,3,1,11,01,,,49,02,37,259,49,03,31,320,49,04,15,280,46*47
$GPGSV,3,2,11,10,19,131,46,16,10,171,45,21,36,238,49,26,36,142,49*79
$GPGSV,3,3,11,28,53,040,52,31,90,258,54,32,27,068,48*45
$GLGSV,1,1,00*65
$GNGLL,3141.71804,N,10627.01333,W,000353.00,A,A*6D
$GNRMC,000354.00,A,3141.71822,N,10627.01333,W,0.007,,010824,7.25,E,A*24
$GNVTG,,T,,M,0.007,N,0.012,K,A*39
$GNGGA,000354.00,3141.71822,N,10627.01333,W,1,10,0.86,215.1,M,-26.3,M,,*79
$GNGSA,A,3,16,21,28,31,32,04,02,03,10,26,,,1.71,0.86,1.48*15
$GNGSA,A,3,,,,,,,,,,,,,1.71,0.86,1.48*18
$GPGSV,3,1,11,01,,,49,02,37,259,49,03,31,320,49,04,15,280,46*47
$GPGSV,3,2,11,10,19,131,46,16,10,171,45,21,36,238,49,26,36,142,49*79
$GPGSV,3,3,11,28,53,040,51,31,90,258,54,32,27,068,48*46
$GLGSV,1,1,00*65
$GNGLL,3141.71822,N,10627.01333,W,000354.00,A,A*6E
$GNRMC,000355.00,A,3141.71841,N,10627.01335,W,0.011,,010824,7.25,E,A*21
$GNVTG,,T,,M,0.011,N,0.021,K,A*3E
$GNGGA,000355.00,3141.71841,N,10627.01335,W,1,10,0.86,215.3,M,-26.3,M,,*79
$GNGSA,A,3,16,21,28,31,32,04,02,03,10,26,,,1.71,0.86,1.48*15
$GNGSA,A,3,,,,,,,,,,,,,1.71,0.86,1.48*18
$GPGSV,3,1,11,01,,,48,02,37,259,49,03,31,320,48,04,15,280,45*44
$GPGSV,3,2,11,10,19,131,45,16,10,171,44,21,36,238,49,26,36,142,49*7B
$GPGSV,3,3,11,28,53,040,51,31,90,258,54,32,27,068,47*49
$GLGSV,1,1,00*65
$GNGLL,3141.71841,N,10627.01335,W,000355.00,A,A*6C
$GNRMC,000356.00,A,3141.71860,N,10627.01336,W,0.007,,010824,7.25,E,A*25
$GNVTG,,T,,M,0.007,N,0.012,K,A*39
$GNGGA,000356.00,3141.71860,N,10627.01336,W,1,10,0.86,215.4,M,-26.3,M,,*7D
$GNGSA,A,3,16,21,28,31,32,04,02,03,10,26,,,1.71,0.86,1.48*15
$GNGSA,A,3,,,,,,,,,,,,,1.71,0.86,1.48*18
$GPGSV,3,1,11,01,,,48,02,37,259,49,03,31,320,49,04,15,280,46*46
$GPGSV,3,2,11,10,19,131,46,16,10,171,45,21,36,238,49,26,36,142,49*79
$GPGSV,3,3,11,28,53,040,51,31,90,258,54,32,27,068,47*49
$GLGSV,1,1,00*65
$GNGLL,3141.71860,N,10627.01336,W,000356.00,A,A*6F
$GNRMC,000357.00,A,3141.71876,N,10627.01338,W,0.010,,010824,7.25,E,A*2B
$GNVTG,,T,,M,0.010,N,0.019,K,A*34
$GNGGA,000357.00,3141.71876,N,10627.01338,W,1,10,0.86,215.5,M,-26.3,M,,*74
$GNGSA,A,3,16,21,28,31,32,04,02,03,10,26,,,1.71,0.86,1.48*15
$GNGSA,A,3,,,,,,,,,,,,,1.71,0.86,1.48*18
$GPGSV,3,1,11,01,,,49,02,37,259,50,03,31,320,49,04,15,280,46*4F
$GPGSV,3,2,11,10,19,131,46,16,10,171,45,21,36,238,49,26,36,142,50*71
$GPGSV,3,3,11,28,53,040,51,31,90,258,54,32,27,068,48*46
$GLGSV,1,1,00*65
$GNGLL,3141.71876,N,10627.01338,W,000357.00,A,A*67
$GNRMC,000358.00,A,3141.71894,N,10627.01337,W,0.008,,010824,7.25,E,A*2E
$GNVTG,,T,,M,0.008,N,0.014,K,A*30
$GNGGA,000358.00,3141.71894,N,10627.01337,W,1,10,0.86,215.7,M,-26.3,M,,*7A
$GNGSA,A,3,16,21,28,31,32,04,02,03,10,26,,,1.71,0.86,1.48*15
$GNGSA,A,3,,,,,,,,,,,,,1.71,0.86,1.48*18
$GPGSV,3,1,11,01,,,49,02,36,259,49,03,31,320,48,04,15,280,46*47
$GPGSV,3,2,11,10,19,131,46,16,10,171,45,21,36,238,49,26,36,142,49*79
$GPGSV,3,3,11,28,53,040,51,31,90,258,54,32,27,068,48*46
$GLGSV,1,1,00*65
$GNGLL,3141.71894,N,10627.01337,W,000358.00,A,A*6B
$GNRMC,000359.00,A,3141.71912,N,10627.01340,W,0.008,,010824,7.25,E,A*20
$GNVTG,,T,,M,0.008,N,0.014,K,A*30
$GNGGA,000359.00,3141.71912,N,10627.01340,W,1,10,0.86,215.9,M,-26.3,M,,*7A
$GNGSA,A,3,16,21,28,31,32,04,02,03,10,26,,,1.71,0.86,1.48*15
$GNGSA,A,3,,,,,,,,,,,,,1.71,0.86,1.48*18
$GPGSV,3,1,11,01,,,48,02,36,259,49,03,31,320,48,04,15,280,45*45
$GPGSV,3,2,11,10,19,131,45,16,10,171,44,21,36,238,48,26,36,142,49*7A
$GPGSV,3,3,11,28,53,040,51,31,90,258,53,32,27,068,47*4E
$GLGSV,1,1,00*65
$GNGLL,3141.71912,N,10627.01340,W,000359.00,A,A*65
$GNRMC,000400.00,A,3141.71932,N,10627.01341,W,0.006,,010824,7.25,E,A*26
$GNVTG,,T,,M,0.006,N,0.012,K,A*38
$GNGGA,000400.00,3141.71932,N,10627.01341,W,1,10,0.86,216.1,M,-26.3,M,,*79
$GNGSA,A,3,16,21,28,31,32,04,02,03,10,26,,,1.71,0.86,1.48*15
$GNGSA,A,3,,,,,,,,,,,,,1.71,0.86,1.48*18
$GPGSV,3,1,11,01,,,49,02,36,259,49,03,31,320,49,04,15,280,46*46
$GPGSV,3,2,11,10,19,131,46,16,10,171,45,21,36,238,49,26,36,142,49*79
$GPGSV,3,3,11,28,53,040,52,31,90,258,54,32,27,068,48*45
$GLGSV,1,1,00*65
$GNGLL,3141.71932,N,10627.01341,W,000400.00,A,A*6D
$GNRMC,000401.00,A,3141.71949,N,10627.01344,W,0.007,,010824,7.25,E,A*2F
$GNVTG,,T,,M,0.007,N,0.013,K,A*38
$GNGGA,000401.00,3141.71949,N,10627.01344,W,1,10,0.86,216.2,M,-26.3,M,,*72
$GNGSA,A,3,16,21,28,31,32,04,02,03,10,26,,,1.71,0.86,1.48*15
$GNGSA,A,3,,,,,,,,,,,,,1.71,0.86,1.48*18
$GPGSV,3,1,11,01,,,49,02,36,259,49,03,31,320,49,04,15,280,46*46
$GPGSV,3,2,11,10,19,131,46,16,10,171,45,21,36,238,49,26,36,142,49*79
$GPGSV,3,3,11,28,53,040,51,31,90,258,54,32,27,068,48*46
$GLGSV,1,1,00*65
$GNGLL,3141.71949,N,10627.01344,W,000401.00,A,A*65
$GNRMC,000402.00,A,3141.71964,N,10627.01349,W,0.015,,010824,7.25,E,A*2D
$GNVTG,,T,,M,0.015,N,0.028,K,A*33
$GNGGA,000402.00,3141.71964,N,10627.01349,W,1,10,0.86,216.4,M,-26.3,M,,*75
$GNGSA,A,3,16,21,28,31,32,04,02,03,10,26,,,1.71,0.86,1.48*15
$GNGSA,A,3,,,,,,,,,,,,,1.71,0.86,1.48*18
$GPGSV,3,1,11,01,,,49,02,36,259,49,03,31,320,48,04,15,280,46*47
$GPGSV,3,2,11,10,19,131,46,16,10,171,45,21,36,238,49,26,36,142,49*79
$GPGSV,3,3,11,28,53,040,51,31,90,258,54,32,27,068,48*46
$GLGSV,1,1,00*65
$GNGLL,3141.71964,N,10627.01349,W,000402.00,A,A*64
$GNRMC,000403.00,A,3141.71981,N,10627.01354,W,0.003,,010824,7.25,E,A*2C
$GNVTG,,T,,M,0.003,N,0.005,K,A*3B
$GNGGA,000403.00,3141.71981,N,10627.01354,W,1,10,0.86,216.6,M,-26.3,M,,*71
$GNGSA,A,3,16,21,28,31,32,04,02,03,10,26,,,1.71,0.86,1.48*15
$GNGSA,A,3,,,,,,,,,,,,,1.71,0.86,1.48*18
$GPGSV,3,1,11,01,,,48,02,36,259,49,03,31,320,48,04,15,280,45*45
$GPGSV,3,2,11,10,19,131,45,16,10,171,44,21,36,238,48,26,36,142,49*7A
$GPGSV,3,3,11,28,53,040,50,31,90,258,53,32,27,068,47*4F
$GLGSV,1,1,00*65
$GNGLL,3141.71981,N,10627.01354,W,000403.00,A,A*62
$GNRMC,000404.00,A,3141.71994,N,10627.01359,W,0.003,,010824,7.25,E,A*22
$GNVTG,,T,,M,0.003,N,0.005,K,A*3B
$GNGGA,000404.00,3141.71994,N,10627.01359,W,1,10,0.86,216.8,M,-26.3,M,,*71
$GNGSA,A,3,16,21,28,31,32,04,02,03,10,26,,,1.71,0.86,1.48*15
$GNGSA,A,3,,,,,,,,,,,,,1.71,0.86,1.48*18
$GPGSV,3,1,11,01,,,49,02,36,259,49,03,31,320,49,04,15,280,46*46
$GPGSV,3,2,11,10,19,131,46,16,10,171,45,21,36,238,49,26,36,142,49*79
$GPGSV,3,3,11,28,53,040,51,31,90,258,54,32,27,068,47*49
$GLGSV,1,1,00*65
$GNGLL,3141.71994,N,10627.01359,W,000404.00,A,A*6C
$GNRMC,000405.00,A,3141.72009,N,10627.01363,W,0.010,,010824,7.25,E,A*26
$GNVTG,,T,,M,0.010,N,0.018,K,A*35
$GNGGA,000405.00,3141.72009,N,10627.01363,W,1,10,0.86,217.0,M,-26.3,M,,*7E
$GNGSA,A,3,16,21,28,31,32,04,02,03,10,26,,,1.71,0.86,1.48*15
$GNGSA,A,3,,,,,,,,,,,,,1.71,0.86,1.48*18
$GPGSV,3,1,11,01,,,48,02,36,259,49,03,31,320,48,04,15,280,46*46
$GPGSV,3,2,11,10,19,131,46,16,10,171,45,21,36,238,49,26,36,142,49*79
$GPGSV,3,3,11,28,52,040,51,31,90,258,54,32,27,068,47*48
$GLGSV,1,1,00*65
$GNGLL,3141.72009,N,10627.01363,W,000405.00,A,A*6A
$GNRMC,000406.00,A,3141.72023,N,10627.01367,W,0.015,,010824,7.25,E,A*2C
$GNVTG,,T,,M,0.015,N,0.028,K,A*33
$GNGGA,000406.00,3141.72023,N,10627.01367,W,1,10,0.86,217.1,M,-26.3,M,,*70
$GNGSA,A,3,16,21,28,31,32,04,02,03,10,26,,,1.71,0.86,1.48*15
$GNGSA,A,3,,,,,,,,,,,,,1.71,0.86,1.48*18
$GPGSV,3,1,11,01,,,49,02,36,259,50,03,31,320,49,04,15,280,46*4E
$GPGSV,3,2,11,10,19,131,46,16,10,171,45,21,36,238,49,26,36,142,50*71
$GPGSV,3,3,11,28,52,040,52,31,90,331,54,32,27,068,47*45
$GLGSV,1,1,00*65
$GNGLL,3141.72023,N,10627.01367,W,000406.00,A,A*65
$GNRMC,000407.00,A,3141.72036,N,10627.01371,W,0.008,,010824,7.25,E,A*22
$GNVTG,,T,,M,0.008,N,0.015,K,A*31
$GNGGA,000407.00,3141.72036,N,10627.01371,W,1,10,0.86,217.3,M,-26.3,M,,*70
$GNGSA,A,3,16,21,28,31,32,04,02,03,10,26,,,1.71,0.86,1.48*15
$GNGSA,A,3,,,,,,,,,,,,,1.71,0.86,1.48*18
$GPGSV,3,1,11,01,,,48,02,36,259,49,03,31,320,48,04,15,280,46*46
$GPGSV,3,2,11,10,19,131,46,16,10,171,45,21,36,238,49,26,36,142,49*79
$GPGSV,3,3,11,28,52,040,51,31,90,331,54,32,26,068,47*47
$GLGSV,1,1,00*65
$GNGLL,3141.72036,N,10627.01371,W,000407.00,A,A*67
$GNRMC,000408.00,A,3141.72050,N,10627.01374,W,0.003,,010824,7.25,E,A*23
$GNVTG,,T,,M,0.003,N,0.006,K,A*38
$GNGGA,000408.00,3141.72050,N,10627.01374,W,1,10,0.86,217.4,M,-26.3,M,,*7D
$GNGSA,A,3,16,21,28,31,32,04,02,03,10,26,,,1.71,0.86,1.48*15
$GNGSA,A,3,,,,,,,,,,,,,1.71,0.86,1.48*18
$GPGSV,3,1,11,01,,,48,02,36,259,49,03,31,320,49,04,15,280,46*47
$GPGSV,3,2,11,10,19,131,46,16,10,171,45,21,36,238,49,26,36,142,49*79
$GPGSV,3,3,11,28,52,040,51,31,90,331,54,32,26,068,47*47
$GLGSV,1,1,00*65
$GNGLL,3141.72050,N,10627.01374,W,000408.00,A,A*6D
$GNRMC,000409.00,A,3141.72065,N,10627.01376,W,0.012,,010824,7.25,E,A*26
$GNVTG,,T,,M,0.012,N,0.022,K,A*3E
$GNGGA,000409.00,3141.72065,N,10627.01376,W,1,10,0.86,217.6,M,-26.3,M,,*7A
$GNGSA,A,3,16,21,28,31,32,04,02,03,10,26,,,1.71,0.86,1.48*15
$GNGSA,A,3,,,,,,,,,,,,,1.71,0.86,1.48*18
$GPGSV,3,1,11,01,,,48,02,36,259,49,03,31,320,48,04,15,280,45*45
$GPGSV,3,2,11,10,19,131,46,16,10,171,45,21,36,238,49,26,36,142,49*79
$GPGSV,3,3,11,28,52,040,51,31,90,331,54,32,26,068,47*47
$GLGSV,1,1,00*65
$GNGLL,3141.72065,N,10627.01376,W,000409.00,A,A*68
$GNRMC,000410.00,A,3141.72080,N,10627.01377,W,0.010,,010824,7.25,E,A*26
$GNVTG,,T,,M,0.010,N,0.019,K,A*34
$GNGGA,000410.00,3141.72080,N,10627.01377,W,1,10,0.86,217.8,M,-26.3,M,,*76
$GNGSA,A,3,16,21,28,31,32,04,02,03,10,26,,,1.71,0.86,1.48*15
$GNGSA,A,3,,,,,,,,,,,,,1.71,0.86,1.48*18
$GPGSV,3,1,11,01,,,49,02,36,259,49,03,31,320,48,04,15,280,45*44
$GPGSV,3,2,11,10,19,131,46,16,10,171,45,21,36,238,49,26,36,142,49*79
$GPGSV,3,3,11,28,52,040,51,31,90,331,54,32,26,068,48*48
$GLGSV,1,1,00*65
$GNGLL,3141.72080,N,10627.01377,W,000410.00,A,A*6A
$GNRMC,000411.00,A,3141.72093,N,10627.01379,W,0.017,,010824,7.25,E,A*2C
$GNVTG,,T,,M,0.017,N,0.032,K,A*3A
$GNGGA,000411.00,3141.72093,N,10627.01379,W,1,10,0.86,217.9,M,-26.3,M,,*7A
$GNGSA,A,3,16,21,28,31,32,04,02,03,10,26,,,1.71,0.86,1.48*15
$GNGSA,A,3,,,,,,,,,,,,,1.71,0.86,1.48*18
$GPGSV,3,1,11,01,,,50,02,36,259,50,03,31,320,49,04,15,280,47*47
$GPGSV,3,2,11,10,19,131,47,16,10,171,46,21,36,238,50,26,36,142,50*7B
$GPGSV,3,3,11,28,52,040,52,31,90,331,55,32,26,068,48*4A
$GLGSV,1,1,00*65
$GNGLL,3141.72093,N,10627.01379,W,000411.00,A,A*67
$GNRMC,000412.00,A,3141.72108,N,10627.01380,W,0.016,,010824,7.25,E,A*2B
$GNVTG,,T,,M,0.016,N,0.029,K,A*31
$GNGGA,000412.00,3141.72108,N,10627.01380,W,1,10,0.86,218.0,M,-26.3,M,,*7A
$GNGSA,A,3,16,21,28,31,32,04,02,03,10,26,,,1.71,0.86,1.48*15
$GNGSA,A,3,,,,,,,,,,,,,1.71,0.86,1.48*18
$GPGSV,3,1,11,01,,,48,02,36,259,49,03,31,320,48,04,15,280,46*46
$GPGSV,3,2,11,10,19,131,46,16,10,171,45,21,36,238,49,26,36,142,49*79
$GPGSV,3,3,11,28,52,040,51,31,90,331,54,32,26,068,47*47
$GLGSV,1,1,00*65
$GNGLL,3141.72108,N,10627.01380,W,000412.00,A,A*61
$GNRMC,000413.00,A,3141.72122,N,10627.01382,W,0.013,,010824,7.25,E,A*25
$GNVTG,,T,,M,0.013,N,0.023,K,A*3E
$GNGGA,000413.00,3141.72122,N,10627.01382,W,1,10,0.86,218.3,M,-26.3,M,,*72
$GNGSA,A,3,16,21,28,31,32,04,02,03,10,26,,,1.71,0.86,1.48*15
$GNGSA,A,3,,,,,,,,,,,,,1.71,0.86,1.48*18
$GPGSV,3,1,11,01,,,48,02,36,259,49,03,31,320,48,04,15,280,45*45
$GPGSV,3,2,11,10,19,131,46,16,10,171,44,21,36,238,49,26,36,142,49*78
$GPGSV,3,3,11,28,52,040,51,31,90,331,54,32,26,068,47*47
$GLGSV,1,1,00*65
$GNGLL,3141.72122,N,10627.01382,W,000413.00,A,A*6A
$GNRMC,000414.00,A,3141.72137,N,10627.01384,W,0.010,,010824,7.25,E,A*23
$GNVTG,,T,,M,0.010,N,0.019,K,A*34
$GNGGA,000414.00,3141.72137,N,10627.01384,W,1,10,0.86,218.4,M,-26.3,M,,*70
$GNGSA,A,3,16,21,28,31,32,04,02,03,10,26,,,1.71,0.86,1.48*15
$GNGSA,A,3,,,,,,,,,,,,,1.71,0.86,1.48*18
$GPGSV,3,1,11,01,,,49,02,36,259,49,03,31,320,48,04,15,280,45*44
$GPGSV,3,2,11,10,19,131,46,16,10,171,44,21,36,238,49,26,36,142,49*78
$GPGSV,3,3,11,28,52,040,51,31,90,331,54,32,26,068,48*48
$GLGSV,1,1,00*65
$GNGLL,3141.72137,N,10627.01384,W,000414.00,A,A*6F
$GNRMC,000415.00,A,3141.72151,N,10627.01385,W,0.012,,010824,7.25,E,A*21
$GNVTG,,T,,M,0.012,N,0.023,K,A*3F
$GNGGA,000415.00,3141.72151,N,10627.01385,W,1,10,0.86,218.6,M,-26.3,M,,*72
$GNGSA,A,3,16,21,28,31,32,04,02,03,10,26,,,1.71,0.86,1.48*15
$GNGSA,A,3,,,,,,,,,,,,,1.71,0.86,1.48*18
$GPGSV,3,1,11,01,,,49,02,36,259,49,03,31,320,49,04,15,280,46*46
$GPGSV,3,2,11,10,19,131,46,16,10,171,45,21,36,238,49,26,36,142,50*71
$GPGSV,3,3,11,28,52,040,51,31,90,331,54,32,26,068,48*48
$GLGSV,1,1,00*65
$GNGLL,3141.72151,N,10627.01385,W,000415.00,A,A*6F
$GNRMC,000416.00,A,3141.72164,N,10627.01388,W,0.010,,010824,7.25,E,A*2B
$GNVTG,,T,,M,0.010,N,0.018,K,A*35
$GNGGA,000416.00,3141.72164,N,10627.01388,W,1,10,0.86,218.7,M,-26.3,M,,*7B
$GNGSA,A,3,16,21,28,31,32,04,02,03,10,26,,,1.71,0.86,1.48*15
$GNGSA,A,3,,,,,,,,,,,,,1.71,0.86,1.48*18
$GPGSV,3,1,11,01,,,48,02,36,259,49,03,31,320,48,04,15,280,45*45
$GPGSV,3,2,11,10,19,131,46,16,10,171,45,21,36,238,49,26,36,142,49*79
$GPGSV,3,3,11,28,52,040,51,31,90,331,53,32,26,068,47*40
$GLGSV,1,1,00*65
$GNGLL,3141.72164,N,10627.01388,W,000416.00,A,A*67
$GNRMC,000417.00,A,3141.72180,N,10627.01390,W,0.008,,010824,7.25,E,A*20
$GNVTG,,T,,M,0.008,N,0.015,K,A*31
$GNGGA,000417.00,3141.72180,N,10627.01390,W,1,10,0.86,219.0,M,-26.3,M,,*7F
$GNGSA,A,3,16,21,28,31,32,04,02,03,10,26,,,1.71,0.86,1.48*15
$GNGSA,A,3,,,,,,,,,,,,,1.71,0.86,1.48*18
$GPGSV,3,1,11,01,,,48,02,36,259,49,03,31,320,48,04,15,280,46*46
$GPGSV,3,2,11,10,19,131,46,16,10,171,45,21,36,238,49,26,36,142,49*79
$GPGSV,3,3,11,28,52,040,51,31,90,331,54,32,26,068,48*48
$GLGSV,1,1,00*65
$GNGLL,3141.72180,N,10627.01390,W,000417.00,A,A*65
$GNRMC,000418.00,A,3141.72197,N,10627.01393,W,0.011,,010824,7.25,E,A*22
$GNVTG,,T,,M,0.011,N,0.021,K,A*3E
$GNGGA,000418.00,3141.72197,N,10627.01393,W,1,10,0.86,219.3,M,-26.3,M,,*76
$GNGSA,A,3,16,21,28,31,32,04,02,03,10,26,,,1.71,0.86,1.48*15
$GNGSA,A,3,,,,,,,,,,,,,1.71,0.86,1.48*18
$GPGSV,3,1,11,01,,,49,02,36,259,49,03,31,320,48,04,15,280,46*47
$GPGSV,3,2,11,10,19,131,46,16,10,171,45,21,36,238,49,26,36,142,50*71
$GPGSV,3,3,11,28,52,040,52,31,90,331,54,32,26,068,48*4B
$GLGSV,1,1,00*65
$GNGLL,3141.72197,N,10627.01393,W,000418.00,A,A*6F
$GNRMC,000419.00,A,3141.72210,N,10627.01396,W,0.009,,010824,7.25,E,A*23
$GNVTG,,T,,M,0.009,N,0.016,K,A*33
$GNGGA,000419.00,3141.72210,N,10627.01396,W,1,10,0.86,219.4,M,-26.3,M,,*79
$GNGSA,A,3,16,21,28,31,32,04,02,03,10,26,,,1.71,0.86,1.48*15
$GNGSA,A,3,,,,,,,,,,,,,1.71,0.86,1.48*18
$GPGSV,3,1,11,01,,,49,02,36,259,50,03,31,320,49,04,15,280,46*4E
$GPGSV,3,2,11,10,19,131,47,16,10,171,45,21,36,238,50,26,36,142,50*78
$GPGSV,3,3,11,28,52,040,52,31,90,331,54,32,26,068,48*4B
$GLGSV,1,1,00*65
$GNGLL,3141.72210,N,10627.01396,W,000419.00,A,A*67
$GNRMC,000420.00,A,3141.72225,N,10627.01398,W,0.010,,010824,7.25,E,A*29
$GNVTG,,T,,M,0.010,N,0.019,K,A*34
$GNGGA,000420.00,3141.72225,N,10627.01398,W,1,10,0.86,219.6,M,-26.3,M,,*79
$GNGSA,A,3,16,21,28,31,32,04,02,03,10,26,,,1.71,0.86,1.48*15
$GNGSA,A,3,,,,,,,,,,,,,1.71,0.86,1.48*18
$GPGSV,3,1,11,01,,,48,02,36,259,49,03,31,320,48,04,15,280,46*46
$GPGSV,3,2,11,10,19,131,46,16,10,171,44,21,36,238,49,26,36,142,49*78
$GPGSV,3,3,11,28,52,040,51,31,90,331,54,32,26,068,47*47
$GLGSV,1,1,00*65
$GNGLL,3141.72225,N,10627.01398,W,000420.00,A,A*65
$GNRMC,000421.00,A,3141.72238,N,10627.01401,W,0.008,,010824,7.25,E,A*2A
$GNVTG,,T,,M,0.008,N,0.015,K,A*31
$GNGGA,000421.00,3141.72238,N,10627.01401,W,1,10,0.86,219.8,M,-26.3,M,,*7D
$GNGSA,A,3,16,21,28,31,32,04,02,03,10,26,,,1.71,0.86,1.48*15
$GNGSA,A,3,,,,,,,,,,,,,1.71,0.86,1.48*18
$GPGSV,3,1,11,01,,,48,02,36,259,49,03,31,320,48,04,15,280,45*45
$GPGSV,3,2,11,10,19,131,45,16,10,171,44,21,36,238,48,26,36,142,49*7A
$GPGSV,3,3,11,28,52,040,51,31,90,331,53,32,26,068,47*40
$GLGSV,1,1,00*65
$GNGLL,3141.72238,N,10627.01401,W,000421.00,A,A*6F
$GNRMC,000422.00,A,3141.72249,N,10627.01403,W,0.015,,010824,7.25,E,A*21
$GNVTG,,T,,M,0.015,N,0.028,K,A*33
$GNGGA,000422.00,3141.72249,N,10627.01403,W,1,10,0.86,220.0,M,-26.3,M,,*78
$GNGSA,A,3,16,21,28,31,32,04,02,03,10,26,,,1.71,0.86,1.48*15
$GNGSA,A,3,,,,,,,,,,,,,1.71,0.86,1.48*18
$GPGSV,3,1,11,01,,,49,02,36,259,50,03,31,320,49,04,15,280,46*4E
$GPGSV,3,2,11,10,19,131,47,16,10,171,45,21,36,238,49,26,36,142,50*70
$GPGSV,3,3,11,28,52,040,52,31,90,331,54,32,26,068,48*4B
$GLGSV,1,1,00*65
$GNGLL,3141.72249,N,10627.01403,W,000422.00,A,A*68
$GNRMC,000423.00,A,3141.72260,N,10627.01405,W,0.011,,010824,7.25,E,A*29
$GNVTG,,T,,M,0.011,N,0.020,K,A*3F
$GNGGA,000423.00,3141.72260,N,10627.01405,W,1,10,0.86,220.1,M,-26.3,M,,*75
$GNGSA,A,3,16,21,28,31,32,04,02,03,10,26,,,1.71,0.86,1.48*15
$GNGSA,A,3,,,,,,,,,,,,,1.71,0.86,1.48*18
$GPGSV,3,1,11,01,,,49,02,36,259,50,03,31,320,49,04,15,280,46*4E
$GPGSV,3,2,11,10,19,131,46,16,10,171,45,21,36,238,49,26,36,142,50*71
$GPGSV,3,3,11,28,52,040,52,31,90,331,54,32,26,068,48*4B
$GLGSV,1,1,00*65
$GNGLL,3141.72260,N,10627.01405,W,000423.00,A,A*64
$GNRMC,000424.00,A,3141.72269,N,10627.01408,W,0.009,,010824,7.25,E,A*23
$GNVTG,,T,,M,0.009,N,0.017,K,A*32
$GNGGA,000424.00,3141.72269,N,10627.01408,W,1,10,0.86,220.2,M,-26.3,M,,*75
$GNGSA,A,3,16,21,28,31,32,04,02,03,10,26,,,1.71,0.86,1.48*15
$GNGSA,A,3,,,,,,,,,,,,,1.71,0.86,1.48*18
$GPGSV,3,1,11,01,,,49,02,36,259,49,03,31,320,48,04,15,280,46*47
$GPGSV,3,2,11,10,19,131,46,16,10,171,45,21,36,238,49,26,36,142,49*79
$GPGSV,3,3,11,28,52,040,51,31,90,331,54,32,26,068,47*47
$GLGSV,1,1,00*65
$GNGLL,3141.72269,N,10627.01408,W,000424.00,A,A*67
$GNRMC,000425.00,A,3141.72280,N,10627.01410,W,0.007,,010824,7.25,E,A*22
$GNVTG,,T,,M,0.007,N,0.013,K,A*38
$GNGGA,000425.00,3141.72280,N,10627.01410,W,1,10,0.86,220.4,M,-26.3,M,,*7C
$GNGSA,A,3,16,21,28,31,32,04,02,03,10,26,,,1.71,0.86,1.48*15
$GNGSA,A,3,,,,,,,,,,,,,1.71,0.86,1.48*18
$GPGSV,3,1,11,01,,,49,02,36,259,49,03,31,320,49,04,15,280,46*46
$GPGSV,3,2,11,10,19,131,46,16,10,171,45,21,36,238,49,26,36,142,49*79
$GPGSV,3,3,11,28,52,040,51,31,90,331,54,32,26,068,48*48
$GLGSV,1,1,00*65
$GNGLL,3141.72280,N,10627.01410,W,000425.00,A,A*68
$GNRMC,000426.00,A,3141.72291,N,10627.01410,W,0.014,,010824,7.25,E,A*23
$GNVTG,,T,,M,0.014,N,0.026,K,A*3C
$GNGGA,000426.00,3141.72291,N,10627.01410,W,1,10,0.86,220.5,M,-26.3,M,,*7E
$GNGSA,A,3,16,21,28,31,32,04,02,03,10,26,,,1.71,0.86,1.48*15
$GNGSA,A,3,,,,,,,,,,,,,1.71,0.86,1.48*18
$GPGSV,3,1,11,01,,,49,02,36,259,50,03,31,320,49,04,15,280,46*4E
$GPGSV,3,2,11,10,19,131,46,16,10,171,45,21,36,238,49,26,36,142,50*71
$GPGSV,3,3,11,28,52,040,52,31,90,331,54,32,26,068,48*4B
$GLGSV,1,1,00*65
$GNGLL,3141.72291,N,10627.01410,W,000426.00,A,A*6B
$GNRMC,000427.00,A,3141.72301,N,10627.01408,W,0.007,,010824,7.25,E,A*21
$GNVTG,,T,,M,0.007,N,0.012,K,A*39
$GNGGA,000427.00,3141.72301,N,10627.01408,W,1,10,0.86,220.6,M,-26.3,M,,*7D
$GNGSA,A,3,16,21,28,31,32,04,02,03,10,26,,,1.71,0.86,1.48*15
$GNGSA,A,3,,,,,,,,,,,,,1.71,0.86,1.48*18
$GPGSV,3,1,11,01,,,49,02,36,259,49,03,32,320,49,04,15,280,46*45
$GPGSV,3,2,11,10,19,131,46,16,10,171,45,21,36,238,49,26,36,142,49*79
$GPGSV,3,3,11,28,52,040,51,31,90,331,54,32,26,068,48*48
$GLGSV,1,1,00*65
$GNGLL,3141.72301,N,10627.01408,W,000427.00,A,A*6B
$GNRMC,000428.00,A,3141.72314,N,10627.01409,W,0.014,,010824,7.25,E,A*29
$GNVTG,,T,,M,0.014,N,0.027,K,A*3D
$GNGGA,000428.00,3141.72314,N,10627.01409,W,1,10,0.86,220.8,M,-26.3,M,,*79
$GNGSA,A,3,16,21,28,31,32,04,02,03,10,26,,,1.71,0.86,1.48*15
$GNGSA,A,3,,,,,,,,,,,,,1.71,0.86,1.48*18
$GPGSV,3,1,11,01,,,48,02,36,259,49,03,32,320,48,04,16,280,45*45
$GPGSV,3,2,11,10,19,131,45,16,10,171,44,21,36,238,49,26,36,142,49*7B
$GPGSV,3,3,11,28,52,040,51,31,90,331,53,32,26,068,47*40
$GLGSV,1,1,00*65
$GNGLL,3141.72314,N,10627.01409,W,000428.00,A,A*61
$GNRMC,000429.00,A,3141.72324,N,10627.01412,W,0.005,,010824,7.25,E,A*21
$GNVTG,,T,,M,0.005,N,0.009,K,A*31
$GNGGA,000429.00,3141.72324,N,10627.01412,W,1,10,0.86,220.9,M,-26.3,M,,*70
$GNGSA,A,3,16,21,28,31,32,04,02,03,10,26,,,1.71,0.86,1.48*15
$GNGSA,A,3,,,,,,,,,,,,,1.71,0.86,1.48*18
$GPGSV,3,1,11,01,,,48,02,36,259,49,03,32,320,48,04,16,280,46*46
$GPGSV,3,2,11,10,19,131,46,16,10,171,45,21,36,238,49,26,36,142,49*79
$GPGSV,3,3,11,28,52,040,51,31,90,331,54,32,26,068,47*47
$GLGSV,1,1,00*65
$GNGLL,3141.72324,N,10627.01412,W,000429.00,A,A*69
$GNRMC,000430.00,A,3141.72335,N,10627.01412,W,0.011,,010824,7.25,E,A*2C
$GNVTG,,T,,M,0.011,N,0.021,K,A*3E
$GNGGA,000430.00,3141.72335,N,10627.01412,W,1,10,0.86,221.1,M,-26.3,M,,*71
$GNGSA,A,3,16,21,28,31,32,04,02,03,10,26,,,1.71,0.86,1.48*15
$GNGSA,A,3,,,,,,,,,,,,,1.71,0.86,1.48*18
$GPGSV,3,1,11,01,,,47,02,36,259,48,03,32,320,47,04,16,280,45*44
$GPGSV,3,2,11,10,19,131,45,16,11,171,44,21,36,238,48,26,36,142,48*7A
$GPGSV,3,3,11,28,52,040,50,31,90,331,53,32,26,068,47*41
$GLGSV,1,1,00*65
$GNGLL,3141.72335,N,10627.01412,W,000430.00,A,A*61
$GNRMC,000431.00,A,3141.72345,N,10627.01414,W,0.011,,010824,7.25,E,A*2C
$GNVTG,,T,,M,0.011,N,0.020,K,A*3F
$GNGGA,000431.00,3141.72345,N,10627.01414,W,1,10,0.86,221.2,M,-26.3,M,,*72
$GNGSA,A,3,16,21,28,31,32,04,02,03,10,26,,,1.71,0.86,1.48*15
$GNGSA,A,3,,,,,,,,,,,,,1.71,0.86,1.48*18
$GPGSV,3,1,11,01,,,49,02,36,259,49,03,32,320,48,04,16,280,46*47
$GPGSV,3,2,11,10,19,131,46,16,11,171,45,21,36,238,49,26,36,142,49*78
$GPGSV,3,3,11,28,52,040,51,31,90,331,54,32,26,068,47*47
$GLGSV,1,1,00*65
$GNGLL,3141.72345,N,10627.01414,W,000431.00,A,A*61
$GNRMC,000432.00,A,3141.72353,N,10627.01416,W,0.014,,010824,7.25,E,A*2F
$GNVTG,,T,,M,0.014,N,0.026,K,A*3C
$GNGGA,000432.00,3141.72353,N,10627.01416,W,1,10,0.86,221.3,M,-26.3,M,,*75
$GNGSA,A,3,16,21,28,31,32,04,02,03,10,26,,,1.71,0.86,1.48*15
$GNGSA,A,3,,,,,,,,,,,,,1.71,0.86,1.48*18
$GPGSV,3,1,11,01,,,49,02,36,259,50,03,32,320,49,04,16,280,46*4E
$GPGSV,3,2,11,10,19,131,46,16,11,171,45,21,36,238,49,26,36,142,50*70
$GPGSV,3,3,11,28,52,040,52,31,90,331,54,32,26,068,48*4B
$GLGSV,1,1,00*65
$GNGLL,3141.72353,N,10627.01416,W,000432.00,A,A*67
$GNRMC,000433.00,A,3141.72361,N,10627.01416,W,0.012,,010824,7.25,E,A*29
$GNVTG,,T,,M,0.012,N,0.022,K,A*3E
$GNGGA,000433.00,3141.72361,N,10627.01416,W,1,10,0.86,221.4,M,-26.3,M,,*72
$GNGSA,A,3,16,21,28,31,32,04,02,03,10,26,,,1.71,0.86,1.48*15
$GNGSA,A,3,,,,,,,,,,,,,1.71,0.86,1.48*18
$GPGSV,3,1,11,01,,,49,02,36,259,49,03,32,320,49,04,16,280,46*46
$GPGSV,3,2,11,10,19,131,46,16,11,171,45,21,36,238,49,26,36,142,50*70
$GPGSV,3,3,11,28,52,040,52,31,90,331,54,32,26,068,48*4B
$GLGSV,1,1,00*65
$GNGLL,3141.72361,N,10627.01416,W,000433.00,A,A*67
$GNRMC,000434.00,A,3141.72369,N,10627.01418,W,0.008,,010824,7.25,E,A*23
$GNVTG,,T,,M,0.008,N,0.014,K,A*30
$GNGGA,000434.00,3141.72369,N,10627.01418,W,1,10,0.86,221.6,M,-26.3,M,,*71
$GNGSA,A,3,16,21,28,31,32,04,02,03,10,26,,,1.71,0.86,1.48*15
$GNGSA,A,3,,,,,,,,,,,,,1.71,0.86,1.48*18
$GPGSV,3,1,11,01,,,48,02,36,259,49,03,32,320,48,04,16,280,46*46
$GPGSV,3,2,11,10,19,131,46,16,11,171,45,21,36,238,49,26,36,142,49*78
$GPGSV,3,3,11,28,52,040,51,31,90,357,54,32,26,068,47*47
$GLGSV,1,1,00*65
$GNGLL,3141.72369,N,10627.01418,W,000434.00,A,A*66
$GNRMC,000435.00,A,3141.72377,N,10627.01421,W,0.013,,010824,7.25,E,A*2D
$GNVTG,,T,,M,0.013,N,0.024,K,A*39
$GNGGA,000435.00,3141.72377,N,10627.01421,W,1,10,0.86,221.7,M,-26.3,M,,*74
$GNGSA,A,3,16,21,28,31,32,04,02,03,10,26,,,1.71,0.86,1.48*15
$GNGSA,A,3,,,,,,,,,,,,,1.71,0.86,1.48*18
$GPGSV,3,1,11,01,,,48,02,36,259,49,03,32,320,48,04,16,280,46*46
$GPGSV,3,2,11,10,19,131,46,16,11,171,45,21,36,238,49,26,36,142,49*78
$GPGSV,3,3,11,28,52,040,51,31,90,357,54,32,26,068,47*47
$GLGSV,1,1,00*65
$GNGLL,3141.72377,N,10627.01421,W,000435.00,A,A*62
$GNRMC,000436.00,A,3141.72384,N,10627.01424,W,0.017,,010824,7.25,E,A*23
$GNVTG,,T,,M,0.017,N,0.032,K,A*3A
$GNGGA,000436.00,3141.72384,N,10627.01424,W,1,10,0.86,221.9,M,-26.3,M,,*70
$GNGSA,A,3,16,21,28,31,32,04,02,03,10,26,,,1.71,0.86,1.48*15
$GNGSA,A,3,,,,,,,,,,,,,1.71,0.86,1.48*18
$GPGSV,3,1,11,01,,,48,02,36,259,49,03,32,320,48,04,16,280,45*45
$GPGSV,3,2,11,10,19,131,46,16,11,171,45,21,36,238,49,26,36,142,49*78
$GPGSV,3,3,11,28,52,040,51,31,90,357,53,32,26,068,47*40
$GLGSV,1,1,00*65
$GNGLL,3141.72384,N,10627.01424,W,000436.00,A,A*68
$GNRMC,000437.00,A,3141.72390,N,10627.01428,W,0.009,,010824,7.25,E,A*24
$GNVTG,,T,,M,0.009,N,0.017,K,A*32
$GNGGA,000437.00,3141.72390,N,10627.01428,W,1,10,0.86,222.1,M,-26.3,M,,*73
$GNGSA,A,3,16,21,28,31,32,04,02,03,10,26,,,1.71,0.86,1.48*15
$GNGSA,A,3,,,,,,,,,,,,,1.71,0.86,1.48*18
$GPGSV,3,1,11,01,,,48,02,36,259,49,03,32,320,48,04,16,280,46*46
$GPGSV,3,2,11,10,19,131,46,16,11,171,45,21,36,238,49,26,36,142,49*78
$GPGSV,3,3,11,28,52,040,51,31,90,357,54,32,26,068,47*47
$GLGSV,1,1,00*65
$GNGLL,3141.72390,N,10627.01428,W,000437.00,A,A*60
$GNRMC,000438.00,A,3141.72396,N,10627.01432,W,0.013,,010824,7.25,E,A*2D
$GNVTG,,T,,M,0.013,N,0.023,K,A*3E
$GNGGA,000438.00,3141.72396,N,10627.01432,W,1,10,0.86,222.2,M,-26.3,M,,*72
$GNGSA,A,3,16,21,28,31,32,04,02,03,10,26,,,1.71,0.86,1.48*15
$GNGSA,A,3,,,,,,,,,,,,,1.71,0.86,1.48*18
$GPGSV,3,1,11,01,,,49,02,36,259,49,03,32,320,48,04,16,280,46*47
$GPGSV,3,2,11,10,19,131,46,16,11,171,45,21,36,238,49,26,36,142,49*78
$GPGSV,3,3,11,28,52,040,51,31,90,357,54,32,26,068,47*47
$GLGSV,1,1,00*65
$GNGLL,3141.72396,N,10627.01432,W,000438.00,A,A*62
$GNRMC,000439.00,A,3141.72404,N,10627.01435,W,0.008,,010824,7.25,E,A*2D
$GNVTG,,T,,M,0.008,N,0.014,K,A*30
$GNGGA,000439.00,3141.72404,N,10627.01435,W,1,10,0.86,222.3,M,-26.3,M,,*79
$GNGSA,A,3,16,21,28,31,32,04,02,03,10,26,,,1.71,0.86,1.48*15
$GNGSA,A,3,,,,,,,,,,,,,1.71,0.86,1.48*18
$GPGSV,3,1,11,01,,,48,02,36,259,49,03,32,320,48,04,16,280,46*46
$GPGSV,3,2,11,10,19,131,46,16,11,171,45,21,36,238,49,26,36,142,49*78
$GPGSV,3,3,11,28,52,040,51,31,90,357,54,32,26,068,47*47
$GLGSV,1,1,00*65
$GNGLL,3141.72404,N,10627.01435,W,000439.00,A,A*68
$GNRMC,000440.00,A,3141.72411,N,10627.01438,W,0.007,,010824,7.25,E,A*25
$GNVTG,,T,,M,0.007,N,0.013,K,A*38
$GNGGA,000440.00,3141.72411,N,10627.01438,W,1,10,0.86,222.5,M,-26.3,M,,*78
$GNGSA,A,3,16,21,28,31,32,04,02,03,10,26,,,1.71,0.86,1.48*15
$GNGSA,A,3,,,,,,,,,,,,,1.71,0.86,1.48*18
$GPGSV,3,1,11,01,,,48,02,36,259,49,03,32,320,48,04,16,280,46*46
$GPGSV,3,2,11,10,19,131,46,16,11,171,45,21,36,238,49,26,36,142,49*78
$GPGSV,3,3,11,28,52,040,51,31,90,357,54,32,26,068,47*47
$GLGSV,1,1,00*65
$GNGLL,3141.72411,N,10627.01438,W,000440.00,A,A*6F
$GNRMC,000441.00,A,3141.72419,N,10627.01440,W,0.007,,010824,7.25,E,A*23
$GNVTG,,T,,M,0.007,N,0.013,K,A*38
$GNGGA,000441.00,3141.72419,N,10627.01440,W,1,10,0.86,222.6,M,-26.3,M,,*7D
$GNGSA,A,3,16,21,28,31,32,04,02,03,10,26,,,1.71,0.86,1.48*15
$GNGSA,A,3,,,,,,,,,,,,,1.71,0.86,1.48*18
$GPGSV,3,1,11,01,,,48,02,36,259,49,03,32,320,48,04,16,280,45*45
$GPGSV,3,2,11,10,19,131,46,16,11,171,45,21,36,238,48,26,36,142,49*79
$GPGSV,3,3,11,28,52,040,51,31,90,357,53,32,26,068,47*40
$GLGSV,1,1,00*65
$GNGLL,3141.72419,N,10627.01440,W,000441.00,A,A*69
$GNRMC,000442.00,A,3141.72420,N,10627.01427,W,1.149,,010824,7.25,E,A*21
$GNVTG,,T,,M,1.149,N,2.128,K,A*39
$GNGGA,000442.00,3141.72420,N,10627.01427,W,1,10,1.05,222.5,M,-26.3,M,,*7C
$GNGSA,A,3,16,21,28,31,32,04,02,03,10,26,,,1.93,1.05,1.62*1B
$GNGSA,A,3,,,,,,,,,,,,,1.93,1.05,1.62*16
$GPGSV,3,1,11,01,,,39,02,36,259,35,03,32,320,39,04,16,280,35*49
$GPGSV,3,2,11,10,19,131,35,16,11,171,36,21,36,238,35,26,36,142,40*7A
$GPGSV,3,3,11,28,52,040,43,31,90,357,44,32,26,068,33*46
$GLGSV,1,1,00*65
$GNGLL,3141.72420,N,10627.01427,W,000442.00,A,A*61
$GNRMC,000443.00,V,,,,,,,010824,7.25,E,N*34
$GNVTG,,,,,,,,,N*2E
$GNGGA,000443.00,,,,,0,00,99.99,,,,,,*7B
$GNGSA,A,1,,,,,,,,,,,,,99.99,99.99,99.99*2E
$GNGSA,A,1,,,,,,,,,,,,,99.99,99.99,99.99*2E
$GPGSV,3,1,11,01,,,01,02,36,259,09,03,32,320,08,04,16,280,33*49
$GPGSV,3,2,11,10,19,131,07,16,11,171,12,21,36,238,25,26,36,142,01*79
$GPGSV,3,3,11,28,52,040,02,31,90,357,23,32,26,068,24*44
$GLGSV,1,1,00*65
$GNGLL,,,,,000443.00,V,N*57
$GNRMC,000444.00,V,,,,,,,010824,7.25,E,N*33
$GNVTG,,,,,,,,,N*2E
$GNGGA,000444.00,,,,,0,00,99.99,,,,,,*7C
$GNGSA,A,1,,,,,,,,,,,,,99.99,99.99,99.99*2E
$GNGSA,A,1,,,,,,,,,,,,,99.99,99.99,99.99*2E
$GPGSV,3,1,12,02,36,259,,03,32,320,10,04,16,280,28,07,,,31*45
$GPGSV,3,2,12,10,19,131,04,16,11,171,14,21,36,238,25,26,36,142,01*7F
$GPGSV,3,3,12,28,52,040,01,31,90,357,19,32,26,068,24,46,52,164,30*78
$GLGSV,1,1,00*65
$GNGLL,,,,,000444.00,V,N*50
$GNRMC,000445.00,V,,,,,,,010824,7.25,E,N*32
$GNVTG,,,,,,,,,N*2E
$GNGGA,000445.00,,,,,0,00,99.99,,,,,,*7D
$GNGSA,A,1,,,,,,,,,,,,,99.99,99.99,99.99*2E
$GNGSA,A,1,,,,,,,,,,,,,99.99,99.99,99.99*2E
$GPGSV,4,1,13,02,36,259,49,03,32,320,12,04,16,280,45,07,,,29*4E
$GPGSV,4,2,13,10,19,131,,16,11,171,17,21,36,238,49,26,36,142,*75
$GPGSV,4,3,13,28,52,040,,31,90,357,,32,26,068,,48,43,224,30*78
$GPGSV,4,4,13,51,53,182,31*40
$GLGSV,1,1,00*65
$GNGLL,,,,,000445.00,V,N*51
$GNRMC,000446.00,V,,,,,,,010824,7.25,E,N*31
$GNVTG,,,,,,,,,N*2E
$GNGGA,000446.00,,,,,0,00,99.99,,,,,,*7E
$GNGSA,A,1,,,,,,,,,,,,,99.99,99.99,99.99*2E
$GNGSA,A,1,,,,,,,,,,,,,99.99,99.99,99.99*2E
$GPGSV,3,1,11,01,,,48,02,36,259,49,03,32,320,,04,16,280,44*48
$GPGSV,3,2,11,10,19,131,46,16,11,171,18,21,36,238,49,26,36,142,48*71
$GPGSV,3,3,11,28,52,040,51,31,90,357,54,32,26,068,47*47
$GLGSV,1,1,00*65
$GNGLL,,,,,000446.00,V,N*52
$GNRMC,000447.00,V,,,,,,,010824,7.25,E,N*30
$GNVTG,,,,,,,,,N*2E
$GNGGA,000447.00,,,,,0,00,99.99,,,,,,*7F
$GNGSA,A,1,,,,,,,,,,,,,99.99,99.99,99.99*2E
$GNGSA,A,1,,,,,,,,,,,,,99.99,99.99,99.99*2E
$GPGSV,3,1,11,01,,,48,02,36,259,50,03,32,320,48,04,16,280,45*4D
$GPGSV,3,2,11,10,19,131,47,16,11,171,18,21,36,238,49,26,36,142,48*70
$GPGSV,3,3,11,28,52,040,51,31,90,357,54,32,26,068,48*48
$GLGSV,1,1,00*65
$GNGLL,,,,,000447.00,V,N*53
$GNRMC,000448.00,V,,,,,,,010824,7.25,E,N*3F
$GNVTG,,,,,,,,,N*2E
$GNGGA,000448.00,,,,,0,00,99.99,,,,,,*70
$GNGSA,A,1,,,,,,,,,,,,,99.99,99.99,99.99*2E
$GNGSA,A,1,,,,,,,,,,,,,99.99,99.99,99.99*2E
$GPGSV,3,1,11,01,,,48,02,36,259,49,03,32,320,47,04,16,280,45*4A
$GPGSV,3,2,11,10,19,131,47,16,11,171,19,21,36,238,49,26,36,142,49*70
$GPGSV,3,3,11,28,52,040,51,31,90,357,54,32,26,068,47*47
$GLGSV,1,1,00*65
$GNGLL,,,,,000448.00,V,N*5C
$GNRMC,000449.00,V,,,,,,,010824,7.25,E,N*3E
$GNVTG,,,,,,,,,N*2E
$GNGGA,000449.00,,,,,0,00,99.99,,,,,,*71
$GNGSA,A,1,,,,,,,,,,,,,99.99,99.99,99.99*2E
$GNGSA,A,1,,,,,,,,,,,,,99.99,99.99,99.99*2E
$GPGSV,3,1,11,01,,,49,02,36,259,49,03,32,320,48,04,16,280,45*44
$GPGSV,3,2,11,10,19,131,47,16,11,171,18,21,36,238,49,26,36,142,48*70
$GPGSV,3,3,11,28,52,040,51,31,90,357,54,32,26,068,48*48
$GLGSV,1,1,00*65
$GNGLL,,,,,000449.00,V,N*5D
$GNRMC,000450.00,V,,,,,,,010824,7.25,E,N*36
$GNVTG,,,,,,,,,N*2E
$GNGGA,000450.00,,,,,0,00,99.99,,,,,,*79
$GNGSA,A,1,,,,,,,,,,,,,99.99,99.99,99.99*2E
$GNGSA,A,1,,,,,,,,,,,,,99.99,99.99,99.99*2E
$GPGSV,3,1,11,01,,,48,02,36,259,49,03,32,320,48,04,16,280,45*45
$GPGSV,3,2,11,10,19,131,47,16,11,171,19,21,36,238,49,26,36,142,48*71
$GPGSV,3,3,11,28,52,040,51,31,90,357,54,32,26,068,47*47
$GLGSV,1,1,00*65
$GNGLL,,,,,000450.00,V,N*55
$GNRMC,000451.00,V,,,,,,,010824,7.25,E,N*37
$GNVTG,,,,,,,,,N*2E
$GNGGA,000451.00,,,,,0,00,99.99,,,,,,*78
$GNGSA,A,1,,,,,,,,,,,,,99.99,99.99,99.99*2E
$GNGSA,A,1,,,,,,,,,,,,,99.99,99.99,99.99*2E
$GPGSV,3,1,11,01,,,49,02,36,259,49,03,32,320,48,04,16,280,45*44
$GPGSV,3,2,11,10,19,131,47,16,11,171,19,21,36,238,49,26,36,142,49*70
$GPGSV,3,3,11,28,52,040,52,31,90,357,54,32,26,068,47*44
$GLGSV,1,1,00*65
$GNGLL,,,,,000451.00,V,N*54
$GNRMC,000452.00,V,,,,,,,010824,7.25,E,N*34
$GNVTG,,,,,,,,,N*2E
$GNGGA,000452.00,,,,,0,00,99.99,,,,,,*7B
$GNGSA,A,1,,,,,,,,,,,,,99.99,99.99,99.99*2E
$GNGSA,A,1,,,,,,,,,,,,,99.99,99.99,99.99*2E
$GPGSV,3,1,11,01,,,49,02,36,259,49,03,32,320,48,04,16,280,45*44
$GPGSV,3,2,11,10,19,131,47,16,11,171,19,21,36,238,49,26,36,142,49*70
$GPGSV,3,3,11,28,52,040,51,31,90,357,54,32,26,068,47*47
$GLGSV,1,1,00*65
$GNGLL,,,,,000452.00,V,N*57
$GNRMC,000453.00,V,,,,,,,010824,7.25,E,N*35
$GNVTG,,,,,,,,,N*2E
$GNGGA,000453.00,,,,,0,00,99.99,,,,,,*7A
$GNGSA,A,1,,,,,,,,,,,,,99.99,99.99,99.99*2E
$GNGSA,A,1,,,,,,,,,,,,,99.99,99.99,99.99*2E
$GPGSV,3,1,11,01,,,49,02,36,259,49,03,32,320,48,04,16,280,45*44
$GPGSV,3,2,11,10,19,131,47,16,11,171,19,21,36,238,49,26,36,142,49*70
$GPGSV,3,3,11,28,52,040,52,31,90,357,54,32,26,068,47*44
$GLGSV,1,1,00*65
$GNGLL,,,,,000453.00,V,N*56
$GNRMC,000454.00,V,,,,,,,010824,7.25,E,N*32
$GNVTG,,,,,,,,,N*2E
$GNGGA,000454.00,,,,,0,00,99.99,,,,,,*7D
$GNGSA,A,1,,,,,,,,,,,,,99.99,99.99,99.99*2E
$GNGSA,A,1,,,,,,,,,,,,,99.99,99.99,99.99*2E
$GPGSV,3,1,11,01,,,49,02,36,258,50,03,32,320,48,04,16,280,46*4E
$GPGSV,3,2,11,10,19,131,48,16,11,171,19,21,36,238,50,26,36,142,49*77
$GPGSV,3,3,11,28,52,040,52,31,90,357,55,32,26,068,48*4A
$GLGSV,1,1,00*65
$GNGLL,,,,,000454.00,V,N*51
$GNRMC,000455.00,V,,,,,,,010824,7.25,E,N*33
$GNVTG,,,,,,,,,N*2E
$GNGGA,000455.00,,,,,0,00,99.99,,,,,,*7C
$GNGSA,A,1,,,,,,,,,,,,,99.99,99.99,99.99*2E
$GNGSA,A,1,,,,,,,,,,,,,99.99,99.99,99.99*2E
$GPGSV,3,1,11,01,,,49,02,36,258,50,03,32,320,48,04,16,280,45*4D
$GPGSV,3,2,11,10,19,131,47,16,11,171,18,21,36,238,49,26,36,142,49*71
$GPGSV,3,3,11,28,52,040,52,31,90,357,54,32,26,068,48*4B
$GLGSV,1,1,00*65
$GNGLL,,,,,000455.00,V,N*50
$GNRMC,235956.10,A,3141.72429,N,10627.01005,W,0.002,,310724,7.25,E,A*22
$GNVTG,,T,,M,0.002,N,0.004,K,A*3B
$GNGGA,235956.10,3141.72429,N,10627.01005,W,1,09,0.93,222.2,M,-26.3,M,,*7D
$GNGSA,A,3,21,28,31,32,04,02,03,10,26,,,,1.83,0.93,1.58*1A
$GNGSA,A,3,,,,,,,,,,,,,1.83,0.93,1.58*10
$GPGSV,3,1,11,01,,,49,02,36,258,49,03,32,320,48,04,14,278,45*40
$GPGSV,3,2,11,10,19,131,47,16,11,171,18,21,36,238,49,26,36,142,49*71
$GPGSV,3,3,11,28,52,040,52,31,90,357,54,32,26,068,48*4B
$GLGSV,1,1,00*65
$GNGLL,3141.72429,N,10627.01005,W,235956.10,A,A*61
$GNRMC,235957.00,A,3141.72343,N,10627.00982,W,0.014,,310724,7.25,E,A*29
$GNVTG,,T,,M,0.014,N,0.025,K,A*3F
$GNGGA,235957.00,3141.72343,N,10627.00982,W,1,09,0.93,222.0,M,-26.3,M,,*73
$GNGSA,A,3,21,28,31,32,04,02,03,10,26,,,,1.83,0.93,1.58*1A
$GNGSA,A,3,,,,,,,,,,,,,1.83,0.93,1.58*10
$GPGSV,3,1,11,01,,,49,02,37,261,49,03,30,320,48,04,14,278,45*49
$GPGSV,3,2,11,10,21,130,47,16,09,172,19,21,37,240,49,26,34,144,49*7A
$GPGSV,3,3,11,28,54,040,52,31,88,204,54,32,28,066,48*43
$GLGSV,1,1,00*65
$GNGLL,3141.72343,N,10627.00982,W,235957.00,A,A*6D
$GNRMC,235958.00,A,3141.72259,N,10627.00961,W,0.009,,310724,7.25,E,A*2D
$GNVTG,,T,,M,0.009,N,0.016,K,A*33
$GNGGA,235958.00,3141.72259,N,10627.00961,W,1,09,0.93,221.9,M,-26.3,M,,*71
$GNGSA,A,3,21,28,31,32,04,02,03,10,26,,,,1.83,0.93,1.58*1A
$GNGSA,A,3,,,,,,,,,,,,,1.83,0.93,1.58*10
$GPGSV,3,1,11,01,,,48,02,37,261,48,03,30,320,47,04,14,278,45*46
$GPGSV,3,2,11,10,21,130,46,16,09,172,19,21,37,240,49,26,34,144,48*7A
$GPGSV,3,3,11,28,54,040,51,31,88,204,54,32,28,066,47*4F
$GLGSV,1,1,00*65
$GNGLL,3141.72259,N,10627.00961,W,235958.00,A,A*65
$GNRMC,235959.00,A,3141.72176,N,10627.00939,W,0.008,,310724,7.25,E,A*2E
$GNVTG,,T,,M,0.008,N,0.014,K,A*30
$GNGGA,235959.00,3141.72176,N,10627.00939,W,1,09,0.93,221.8,M,-26.3,M,,*72
$GNGSA,A,3,21,28,31,32,04,02,03,10,26,,,,1.83,0.93,1.58*1A
$GNGSA,A,3,,,,,,,,,,,,,1.83,0.93,1.58*10
$GPGSV,3,1,11,01,,,49,02,37,261,49,03,30,320,48,04,14,278,46*4A
$GPGSV,3,2,11,10,21,130,47,16,09,172,19,21,37,240,49,26,34,144,49*7A
$GPGSV,3,3,11,28,54,040,52,31,88,204,54,32,28,066,48*43
$GLGSV,1,1,00*65
$GNGLL,3141.72176,N,10627.00939,W,235959.00,A,A*67
$GNRMC,000000.00,A,3141.72099,N,10627.00922,W,0.011,,010824,7.25,E,A*21
$GNVTG,,T,,M,0.011,N,0.020,K,A*3F
$GNGGA,000000.00,3141.72099,N,10627.00922,W,1,09,0.93,221.7,M,-26.3,M,,*76
$GNGSA,A,3,21,28,31,32,04,02,03,10,26,,,,1.83,0.93,1.58*1A
$GNGSA,A,3,,,,,,,,,,,,,1.83,0.93,1.58*10
$GPGSV,3,1,11,01,,,48,02,37,261,49,03,30,320,47,04,14,278,45*47
$GPGSV,3,2,11,10,21,130,47,16,09,172,19,21,37,240,49,26,34,144,49*7A
$GPGSV,3,3,11,28,54,040,51,31,88,204,54,32,28,066,48*40
$GLGSV,1,1,00*65
$GNGLL,3141.72099,N,10627.00922,W,000000.00,A,A*6C
$GNRMC,000001.00,A,3141.72024,N,10627.00907,W,0.006,,010824,7.25,E,A*27
$GNVTG,,T,,M,0.006,N,0.011,K,A*3B
$GNGGA,000001.00,3141.72024,N,10627.00907,W,1,09,0.93,221.6,M,-26.3,M,,*77
$GNGSA,A,3,21,28,31,32,04,02,03,10,26,,,,1.83,0.93,1.58*1A
$GNGSA,A,3,,,,,,,,,,,,,1.83,0.93,1.58*10
$GPGSV,3,1,11,01,,,48,02,37,261,49,03,30,320,47,04,14,278,45*47
$GPGSV,3,2,11,10,21,130,46,16,09,172,18,21,37,240,49,26,34,144,48*7B
$GPGSV,3,3,11,28,54,040,51,31,88,204,54,32,28,066,47*4F
$GLGSV,1,1,00*65
$GNGLL,3141.72024,N,10627.00907,W,000001.00,A,A*6C
$GNRMC,000002.00,A,3141.71955,N,10627.00894,W,0.010,,010824,7.25,E,A*24
$GNVTG,,T,,M,0.010,N,0.018,K,A*35
$GNGGA,000002.00,3141.71955,N,10627.00894,W,1,09,0.93,221.5,M,-26.3,M,,*70
$GNGSA,A,3,21,28,31,32,04,02,03,10,26,,,,1.83,0.93,1.58*1A
$GNGSA,A,3,,,,,,,,,,,,,1.83,0.93,1.58*10
$GPGSV,3,1,11,01,,,49,02,37,261,49,03,30,320,48,04,14,278,45*49
$GPGSV,3,2,11,10,21,130,47,16,09,172,19,21,37,240,50,26,34,144,49*72
$GPGSV,3,3,11,28,54,040,52,31,88,204,54,32,28,066,48*43
$GLGSV,1,1,00*65
$GNGLL,3141.71955,N,10627.00894,W,000002.00,A,A*68
$GNRMC,000003.00,A,3141.71887,N,10627.00883,W,0.005,,010824,7.25,E,A*29
$GNVTG,,T,,M,0.005,N,0.009,K,A*31
$GNGGA,000003.00,3141.71887,N,10627.00883,W,1,09,0.93,221.4,M,-26.3,M,,*78
$GNGSA,A,3,21,28,31,32,04,02,03,10,26,,,,1.83,0.93,1.58*1A
$GNGSA,A,3,,,,,,,,,,,,,1.83,0.93,1.58*10
$GPGSV,3,1,11,01,,,48,02,37,261,49,03,30,320,47,04,14,278,45*47
$GPGSV,3,2,11,10,21,130,47,16,09,172,18,21,37,240,49,26,34,144,48*7A
$GPGSV,3,3,11,28,54,040,51,31,88,204,54,32,28,066,47*4F
$GLGSV,1,1,00*65
$GNGLL,3141.71887,N,10627.00883,W,000003.00,A,A*61
$GNRMC,000004.00,A,3141.71825,N,10627.00873,W,0.013,,010824,7.25,E,A*2E
$GNVTG,,T,,M,0.013,N,0.024,K,A*39
$GNGGA,000004.00,3141.71825,N,10627.00873,W,1,09,0.93,221.3,M,-26.3,M,,*7F
$GNGSA,A,3,21,28,31,32,04,02,03,10,26,,,,1.83,0.93,1.58*1A
$GNGSA,A,3,,,,,,,,,,,,,1.83,0.93,1.58*10
$GPGSV,3,1,11,01,,,49,02,37,261,49,03,30,320,48,04,14,278,45*49
$GPGSV,3,2,11,10,21,130,47,16,09,172,18,21,37,240,50,26,34,144,49*73
$GPGSV,3,3,11,28,54,040,52,31,88,204,54,32,28,066,48*43
$GLGSV,1,1,00*65
$GNGLL,3141.71825,N,10627.00873,W,000004.00,A,A*61
$GNRMC,000005.00,A,3141.71762,N,10627.00863,W,0.003,,010824,7.25,E,A*23
$GNVTG,,T,,M,0.003,N,0.006,K,A*38
$GNGGA,000005.00,3141.71762,N,10627.00863,W,1,09,0.93,221.2,M,-26.3,M,,*72
$GNGSA,A,3,21,28,31,32,04,02,03,10,26,,,,1.83,0.93,1.58*1A
$GNGSA,A,3,,,,,,,,,,,,,1.83,0.93,1.58*10
$GPGSV,3,1,11,01,,,49,02,37,261,49,03,30,320,47,04,14,278,45*46
$GPGSV,3,2,11,10,21,130,47,16,09,172,18,21,37,240,49,26,34,144,48*7A
$GPGSV,3,3,11,28,54,040,51,31,88,204,54,32,28,066,47*4F
$GLGSV,1,1,00*65
$GNGLL,3141.71762,N,10627.00863,W,000005.00,A,A*6D
$GNRMC,000006.00,A,3141.71701,N,10627.00855,W,0.009,,010824,7.25,E,A*2A
$GNVTG,,T,,M,0.009,N,0.016,K,A*33
$GNGGA,000006.00,3141.71701,N,10627.00855,W,1,09,0.93,221.1,M,-26.3,M,,*72
$GNGSA,A,3,21,28,31,32,04,02,03,10,26,,,,1.83,0.93,1.58*1A
$GNGSA,A,3,,,,,,,,,,,,,1.83,0.93,1.58*10
$GPGSV,3,1,11,01,,,48,02,37,261,49,03,30,320,48,04,14,278,45*48
$GPGSV,3,2,11,10,21,130,47,16,09,172,19,21,37,240,49,26,34,144,48*7B
$GPGSV,3,3,11,28,54,040,51,31,88,204,54,32,28,066,47*4F
$GLGSV,1,1,00*65
$GNGLL,3141.71701,N,10627.00855,W,000006.00,A,A*6E
$GNRMC,000007.00,A,3141.71641,N,10627.00848,W,0.004,,010824,7.25,E,A*2F
$GNVTG,,T,,M,0.004,N,0.007,K,A*3E
$GNGGA,000007.00,3141.71641,N,10627.00848,W,1,09,0.93,221.0,M,-26.3,M,,*7B
$GNGSA,A,3,21,28,31,32,04,02,03,10,26,,,,1.83,0.93,1.58*1A
$GNGSA,A,3,,,,,,,,,,,,,1.83,0.93,1.58*10
$GPGSV,3,1,11,01,,,48,02,37,261,49,03,30,320,48,04,14,278,45*48
$GPGSV,3,2,11,10,21,130,47,16,09,172,18,21,37,240,49,26,34,144,48*7A
$GPGSV,3,3,11,28,54,040,51,31,88,204,54,32,28,066,48*40
$GLGSV,1,1,00*65
$GNGLL,3141.71641,N,10627.00848,W,000007.00,A,A*66
$GNRMC,000008.00,A,3141.71583,N,10627.00841,W,0.006,,010824,7.25,E,A*26
$GNVTG,,T,,M,0.006,N,0.011,K,A*3B
$GNGGA,000008.00,3141.71583,N,10627.00841,W,1,09,0.93,220.9,M,-26.3,M,,*78
$GNGSA,A,3,21,28,31,32,04,02,03,10,26,,,,1.84,0.93,1.58*1D
$GNGSA,A,3,,,,,,,,,,,,,1.84,0.93,1.58*17
$GPGSV,3,1,11,01,,,49,02,37,261,49,03,30,320,48,04,14,278,46*4A
$GPGSV,3,2,11,10,21,130,47,16,09,172,19,21,37,240,50,26,34,144,49*72
$GPGSV,3,3,11,28,54,040,52,31,88,204,54,32,28,066,48*43
$GLGSV,1,1,00*65
$GNGLL,3141.71583,N,10627.00841,W,000008.00,A,A*6D
$GNRMC,000009.00,A,3141.71528,N,10627.00835,W,0.006,,010824,7.25,E,A*25
$GNVTG,,T,,M,0.006,N,0.012,K,A*38
$GNGGA,000009.00,3141.71528,N,10627.00835,W,1,10,0.93,220.8,M,-26.3,M,,*72
$GNGSA,A,3,16,21,28,31,32,04,02,03,10,26,,,1.84,0.93,1.58*1A
$GNGSA,A,3,,,,,,,,,,,,,1.84,0.93,1.58*17
$GPGSV,3,1,11,01,,,49,02,37,261,49,03,30,320,48,04,14,278,45*49
$GPGSV,3,2,11,10,21,130,47,16,09,172,20,21,37,240,49,26,34,144,49*70
$GPGSV,3,3,11,28,54,040,51,31,88,204,54,32,28,066,48*40
$GLGSV,1,1,00*65
$GNGLL,3141.71528,N,10627.00835,W,000009.00,A,A*6E
$GNRMC,000010.00,A,3141.71475,N,10627.00831,W,0.006,,010824,7.25,E,A*20
$GNVTG,,T,,M,0.006,N,0.011,K,A*3B
$GNGGA,000010.00,3141.71475,N,10627.00831,W,1,09,0.93,220.7,M,-26.3,M,,*70
$GNGSA,A,3,21,28,31,32,04,02,03,10,26,,,,1.84,0.93,1.58*1D
$GNGSA,A,3,,,,,,,,,,,,,1.84,0.93,1.58*17
