$GNRMC,000430.00,A,3141.68651,N,10627.03389,W,0.071,,010824,,,A,V*00
$GNVTG,,T,,M,0.071,N,0.132,K,A*3B
$GNGGA,000430.00,3141.68651,N,10627.03389,W,1,08,0.92,429.7,M,-26.3,M,,*7E
$GNGSA,A,3,26,02,10,21,04,16,03,32,,,,,2.62,0.92,2.46,1*09
$GNGSA,A,3,,,,,,,,,,,,,2.62,0.92,2.46,2*0F
$GNGSA,A,3,,,,,,,,,,,,,2.62,0.92,2.46,3*0E
$GNGSA,A,3,,,,,,,,,,,,,2.62,0.92,2.46,4*09
$GPGSV,3,1,10,02,36,259,49,03,32,320,48,04,16,280,45,10,19,131,37,1*6A
$GPGSV,3,2,10,16,10,171,44,21,36,238,48,26,36,142,49,32,26,068,33,1*66
$GPGSV,3,3,10,46,46,218,32,51,53,182,32,1*67
$GLGSV,1,1,00,1*78
$GAGSV,1,1,00,7*73
$GBGSV,1,1,00,1*76
$GNGLL,3141.68651,N,10627.03389,W,000430.00,A,A*6A
$GNRMC,000431.00,A,3141.68687,N,10627.03346,W,0.073,,010824,,,A,V*0B
$GNVTG,,T,,M,0.073,N,0.134,K,A*3F
$GNGGA,000431.00,3141.68687,N,10627.03346,W,1,08,0.92,430.9,M,-26.3,M,,*71
$GNGSA,A,3,26,02,10,21,04,16,03,32,,,,,2.62,0.92,2.46,1*09
$GNGSA,A,3,,,,,,,,,,,,,2.62,0.92,2.46,2*0F
$GNGSA,A,3,,,,,,,,,,,,,2.62,0.92,2.46,3*0E
$GNGSA,A,3,,,,,,,,,,,,,2.62,0.92,2.46,4*09
$GPGSV,3,1,10,02,36,259,46,03,32,320,45,04,16,280,43,10,19,131,36,1*6F
$GPGSV,3,2,10,16,10,171,41,21,36,238,46,26,36,142,46,32,26,068,32,1*63
$GPGSV,3,3,10,44,51,200,28,51,53,182,31,1*62
$GLGSV,1,1,00,1*78
$GAGSV,1,1,00,7*73
$GBGSV,1,1,00,1*76
$GNGLL,3141.68687,N,10627.03346,W,000431.00,A,A*63
$GNRMC,000432.00,A,3141.68739,N,10627.03240,W,0.093,,010824,,,A,V*05
$GNVTG,,T,,M,0.093,N,0.172,K,A*33
$GNGGA,000432.00,3141.68739,N,10627.03240,W,1,08,0.92,431.8,M,-26.3,M,,*71
$GNGSA,A,3,26,02,10,21,04,16,03,32,,,,,2.62,0.92,2.46,1*09
$GNGSA,A,3,,,,,,,,,,,,,2.62,0.92,2.46,2*0F
$GNGSA,A,3,,,,,,,,,,,,,2.62,0.92,2.46,3*0E
$GNGSA,A,3,,,,,,,,,,,,,2.62,0.92,2.46,4*09
$GPGSV,3,1,09,02,36,259,47,03,32,320,46,04,16,280,45,10,19,131,37,1*62
$GPGSV,3,2,09,16,10,171,44,21,36,238,47,26,36,142,47,32,26,068,33,1*6F
$GPGSV,3,3,09,51,53,182,30,1*57
$GLGSV,1,1,00,1*78
$GAGSV,1,1,00,7*73
$GBGSV,1,1,00,1*76
$GNGLL,3141.68739,N,10627.03240,W,000432.00,A,A*63
$GNRMC,000433.00,A,3141.68792,N,10627.03122,W,0.051,,010824,,,A,V*0C
$GNVTG,,T,,M,0.051,N,0.094,K,A*34
$GNGGA,000433.00,3141.68792,N,10627.03122,W,1,08,0.92,432.6,M,-26.3,M,,*7B
$GNGSA,A,3,26,02,10,21,04,16,03,32,,,,,2.62,0.92,2.46,1*09
$GNGSA,A,3,,,,,,,,,,,,,2.62,0.92,2.46,2*0F
$GNGSA,A,3,,,,,,,,,,,,,2.62,0.92,2.46,3*0E
$GNGSA,A,3,,,,,,,,,,,,,2.62,0.92,2.46,4*09
$GPGSV,3,1,09,02,36,259,46,03,32,320,45,04,16,280,42,10,19,131,38,1*68
$GPGSV,3,2,09,16,10,171,41,21,36,238,45,26,36,142,46,32,26,068,35,1*6F
$GPGSV,3,3,09,51,53,182,30,1*57
$GLGSV,1,1,00,1*78
$GAGSV,1,1,00,7*73
$GBGSV,1,1,00,1*76
$GNGLL,3141.68792,N,10627.03122,W,000433.00,A,A*64
$GNRMC,000434.00,A,3141.68830,N,10627.03046,W,0.064,,010824,,,A,V*09
$GNVTG,,T,,M,0.064,N,0.118,K,A*37
$GNGGA,000434.00,3141.68830,N,10627.03046,W,1,08,0.92,433.5,M,-26.3,M,,*7A
$GNGSA,A,3,26,02,10,21,04,16,03,32,,,,,2.62,0.92,2.46,1*09
$GNGSA,A,3,,,,,,,,,,,,,2.62,0.92,2.46,2*0F
$GNGSA,A,3,,,,,,,,,,,,,2.62,0.92,2.46,3*0E
$GNGSA,A,3,,,,,,,,,,,,,2.62,0.92,2.46,4*09
$GPGSV,2,1,08,02,36,259,48,03,32,320,47,04,16,280,44,10,19,131,36,1*6C
$GPGSV,2,2,08,16,10,171,43,21,36,238,48,26,36,142,47,32,26,068,33,1*67
$GLGSV,1,1,00,1*78
$GAGSV,1,1,00,7*73
$GBGSV,1,1,00,1*76
$GNGLL,3141.68830,N,10627.03046,W,000434.00,A,A*67
$GNRMC,000435.00,A,3141.68959,N,10627.03052,W,0.120,,010824,,,A,V*02
$GNVTG,,T,,M,0.120,N,0.222,K,A*3C
$GNGGA,000435.00,3141.68959,N,10627.03052,W,1,08,1.28,437.7,M,-26.3,M,,*76
$GNGSA,A,3,26,02,10,21,04,16,03,32,,,,,4.04,1.28,3.83,1*07
$GNGSA,A,3,,,,,,,,,,,,,4.04,1.28,3.83,2*01
$GNGSA,A,3,,,,,,,,,,,,,4.04,1.28,3.83,3*00
$GNGSA,A,3,,,,,,,,,,,,,4.04,1.28,3.83,4*07
$GPGSV,2,1,08,02,36,259,44,03,32,320,43,04,16,280,41,10,19,131,36,1*61
$GPGSV,2,2,08,16,10,171,39,21,36,238,44,26,36,142,44,32,26,068,34,1*62
$GLGSV,1,1,00,1*78
$GAGSV,1,1,00,7*73
$GBGSV,1,1,00,1*76
$GNGLL,3141.68959,N,10627.03052,W,000435.00,A,A*6D
$GNRMC,000436.00,A,3141.69120,N,10627.03093,W,0.075,,010824,,,A,V*0A
$GNVTG,,T,,M,0.075,N,0.139,K,A*34
$GNGGA,000436.00,3141.69120,N,10627.03093,W,1,08,1.28,442.8,M,-26.3,M,,*72
$GNGSA,A,3,26,02,10,21,04,16,03,32,,,,,4.04,1.28,3.83,1*07
$GNGSA,A,3,,,,,,,,,,,,,4.04,1.28,3.83,2*01
$GNGSA,A,3,,,,,,,,,,,,,4.04,1.28,3.83,3*00
$GNGSA,A,3,,,,,,,,,,,,,4.04,1.28,3.83,4*07
$GPGSV,2,1,08,02,36,259,51,03,32,320,50,04,16,280,48,10,19,131,39,1*61
$GPGSV,2,2,08,16,10,171,47,21,36,238,50,26,36,142,50,32,26,068,38,1*67
$GLGSV,1,1,00,1*78
$GAGSV,1,1,01,03,,,29,7*7A
$GBGSV,1,1,00,1*76
$GNGLL,3141.69120,N,10627.03093,W,000436.00,A,A*64
$GNRMC,000437.00,A,3141.69304,N,10627.02777,W,0.437,228.74,010824,,,A,V*14
$GNVTG,228.74,T,,M,0.437,N,0.810,K,A*21
$GNGGA,000437.00,3141.69304,N,10627.02777,W,1,08,1.15,450.0,M,-26.3,M,,*7E
$GNGSA,A,3,26,02,10,21,04,16,03,32,,,,,3.60,1.15,3.41,1*02
$GNGSA,A,3,,,,,,,,,,,,,3.60,1.15,3.41,2*04
$GNGSA,A,3,,,,,,,,,,,,,3.60,1.15,3.41,3*05
$GNGSA,A,3,,,,,,,,,,,,,3.60,1.15,3.41,4*02
$GPGSV,3,1,09,02,36,259,49,03,32,320,48,04,16,280,45,10,19,131,40,1*62
$GPGSV,3,2,09,16,10,171,44,21,36,238,48,26,36,142,48,32,26,068,35,1*69
$GPGSV,3,3,09,46,46,218,37,1*52
$GLGSV,1,1,00,1*78
$GAGSV,1,1,00,7*73
$GBGSV,1,1,00,1*76
$GNGLL,3141.69304,N,10627.02777,W,000437.00,A,A*6D
$GNRMC,000438.00,A,3141.69453,N,10627.02782,W,1.228,273.38,010824,,,A,V*1B
$GNVTG,273.38,T,,M,1.228,N,2.273,K,A*23
$GNGGA,000438.00,3141.69453,N,10627.02782,W,1,08,1.28,456.0,M,-26.3,M,,*76
$GNGSA,A,3,26,02,10,21,04,16,03,32,,,,,4.03,1.28,3.83,1*00
$GNGSA,A,3,,,,,,,,,,,,,4.03,1.28,3.83,2*06
$GNGSA,A,3,,,,,,,,,,,,,4.03,1.28,3.83,3*07
$GNGSA,A,3,,,,,,,,,,,,,4.03,1.28,3.83,4*00
$GPGSV,2,1,08,02,36,259,46,03,32,320,46,04,16,280,43,10,19,131,37,1*65
$GPGSV,2,2,08,16,10,171,43,21,36,238,46,26,36,142,46,32,26,068,35,1*6E
$GLGSV,1,1,00,1*78
$GAGSV,1,1,00,7*73
$GBGSV,1,1,00,1*76
$GNGLL,3141.69453,N,10627.02782,W,000438.00,A,A*6D
$GNRMC,000439.00,A,3141.69607,N,10627.02759,W,0.077,,010824,,,A,V*05
$GNVTG,,T,,M,0.077,N,0.143,K,A*3B
$GNGGA,000439.00,3141.69607,N,10627.02759,W,1,08,1.28,462.0,M,-26.3,M,,*75
$GNGSA,A,3,26,02,10,21,04,16,03,32,,,,,4.03,1.28,3.82,1*01
$GNGSA,A,3,,,,,,,,,,,,,4.03,1.28,3.82,2*07
$GNGSA,A,3,,,,,,,,,,,,,4.03,1.28,3.82,3*06
$GNGSA,A,3,,,,,,,,,,,,,4.03,1.28,3.82,4*01
$GPGSV,2,1,08,02,36,259,47,03,32,320,47,04,16,280,45,10,19,131,37,1*63
$GPGSV,2,2,08,16,10,171,44,21,36,238,48,26,36,142,48,32,26,068,34,1*68
$GLGSV,1,1,00,1*78
$GAGSV,1,1,00,7*73
$GBGSV,1,1,00,1*76
$GNGLL,3141.69607,N,10627.02759,W,000439.00,A,A*69
$GNRMC,000440.00,A,3141.69730,N,10627.02728,W,0.205,,010824,,,A,V*0F
$GNVTG,,T,,M,0.205,N,0.380,K,A*31
$GNGGA,000440.00,3141.69730,N,10627.02728,W,1,08,1.28,467.0,M,-26.3,M,,*7D
$GNGSA,A,3,26,02,10,21,04,16,03,32,,,,,4.03,1.28,3.82,1*01
$GNGSA,A,3,,,,,,,,,,,,,4.03,1.28,3.82,2*07
$GNGSA,A,3,,,,,,,,,,,,,4.03,1.28,3.82,3*06
$GNGSA,A,3,,,,,,,,,,,,,4.03,1.28,3.82,4*01
$GPGSV,2,1,08,02,36,259,48,03,32,320,47,04,16,280,43,10,19,131,37,1*6A
$GPGSV,2,2,08,16,10,171,42,21,36,238,48,26,36,142,48,32,26,068,34,1*6E
$GLGSV,1,1,00,1*78
$GAGSV,1,1,00,7*73
$GBGSV,1,1,00,1*76
$GNGLL,3141.69730,N,10627.02728,W,000440.00,A,A*64
$GNRMC,000441.00,A,3141.69867,N,10627.02685,W,0.153,,010824,,,A,V*05
$GNVTG,,T,,M,0.153,N,0.283,K,A*33
$GNGGA,000441.00,3141.69867,N,10627.02685,W,1,08,1.28,471.2,M,-26.3,M,,*72
$GNGSA,A,3,26,02,10,21,04,16,03,32,,,,,4.03,1.28,3.82,1*01
$GNGSA,A,3,,,,,,,,,,,,,4.03,1.28,3.82,2*07
$GNGSA,A,3,,,,,,,,,,,,,4.03,1.28,3.82,3*06
$GNGSA,A,3,,,,,,,,,,,,,4.03,1.28,3.82,4*01
$GPGSV,2,1,08,02,36,259,45,03,32,320,44,04,16,280,40,10,19,132,34,1*67
$GPGSV,2,2,08,16,10,171,40,21,36,238,45,26,36,142,45,32,26,068,33,1*6B
$GLGSV,1,1,00,1*78
$GAGSV,1,1,00,7*73
$GBGSV,1,1,00,1*76
$GNGLL,3141.69867,N,10627.02685,W,000441.00,A,A*6E
$GNRMC,000442.00,A,3141.69911,N,10627.02495,W,0.139,,010824,,,A,V*09
$GNVTG,,T,,M,0.139,N,0.258,K,A*39
$GNGGA,000442.00,3141.69911,N,10627.02495,W,1,08,0.92,471.9,M,-26.3,M,,*79
$GNGSA,A,3,26,02,10,21,04,16,03,32,,,,,2.63,0.92,2.46,1*08
$GNGSA,A,3,,,,,,,,,,,,,2.63,0.92,2.46,2*0E
$GNGSA,A,3,,,,,,,,,,,,,2.63,0.92,2.46,3*0F
$GNGSA,A,3,,,,,,,,,,,,,2.63,0.92,2.46,4*08
$GPGSV,3,1,09,02,36,259,20,03,32,320,21,04,16,280,35,10,19,132,29,1*69
$GPGSV,3,2,09,16,11,171,36,21,36,238,22,26,36,142,29,32,26,068,28,1*6A
$GPGSV,3,3,09,44,51,200,30,1*58
$GLGSV,1,1,00,1*78
$GAGSV,1,1,00,7*73
$GBGSV,1,1,00,1*76
$GNGLL,3141.69911,N,10627.02495,W,000442.00,A,A*6E
$GNRMC,000443.00,A,3141.69945,N,10627.02507,W,0.653,,010824,,,A,V*08
$GNVTG,,T,,M,0.653,N,1.210,K,A*3F
$GNGGA,000443.00,3141.69945,N,10627.02507,W,1,04,1.60,470.6,M,-26.3,M,,*7D
$GNGSA,A,3,26,02,10,32,,,,,,,,,6.05,1.60,5.83,1*0D
$GNGSA,A,3,,,,,,,,,,,,,6.05,1.60,5.83,2*08
$GNGSA,A,3,,,,,,,,,,,,,6.05,1.60,5.83,3*09
$GNGSA,A,3,,,,,,,,,,,,,6.05,1.60,5.83,4*0E
$GPGSV,3,1,09,02,36,259,11,03,32,320,09,04,16,280,,10,19,132,18,1*65
$GPGSV,3,2,09,16,11,171,06,21,36,238,,26,36,142,17,32,26,068,19,1*66
$GPGSV,3,3,09,44,51,200,30,1*58
$GLGSV,1,1,00,1*78
$GAGSV,1,1,00,7*73
$GBGSV,1,1,00,1*76
$GNGLL,3141.69945,N,10627.02507,W,000443.00,A,A*64
$GNRMC,000444.00,V,,,,,,,010824,,,N,V*12
$GNVTG,,,,,,,,,N*2E
$GNGGA,000444.00,,,,,0,00,99.99,,,,,,*7C
$GNGSA,A,1,,,,,,,,,,,,,99.99,99.99,99.99,1*33
$GNGSA,A,1,,,,,,,,,,,,,99.99,99.99,99.99,2*30
$GNGSA,A,1,,,,,,,,,,,,,99.99,99.99,99.99,3*31
$GNGSA,A,1,,,,,,,,,,,,,99.99,99.99,99.99,4*36
$GPGSV,3,1,09,02,36,259,,03,32,320,08,04,16,280,22,10,19,132,06,1*6B
$GPGSV,3,2,09,16,11,171,07,21,36,238,24,26,36,142,07,32,26,068,19,1*60
$GPGSV,3,3,09,44,51,200,30,1*58
$GLGSV,1,1,00,1*78
$GAGSV,1,1,00,7*73
$GBGSV,1,1,00,1*76
$GNGLL,,,,,000444.00,V,N*50
$GNRMC,000445.00,V,,,,,,,010824,,,N,V*13
$GNVTG,,,,,,,,,N*2E
$GNGGA,000445.00,,,,,0,00,99.99,,,,,,*7D
$GNGSA,A,1,,,,,,,,,,,,,99.99,99.99,99.99,1*33
$GNGSA,A,1,,,,,,,,,,,,,99.99,99.99,99.99,2*30
$GNGSA,A,1,,,,,,,,,,,,,99.99,99.99,99.99,3*31
$GNGSA,A,1,,,,,,,,,,,,,99.99,99.99,99.99,4*36
$GPGSV,3,1,09,02,36,259,48,03,32,320,08,04,16,280,19,10,19,132,05,1*6C
$GPGSV,3,2,09,16,11,171,11,21,36,238,24,26,36,142,02,32,26,068,45,1*6B
$GPGSV,3,3,09,44,51,200,32,1*5A
$GLGSV,1,1,00,1*78
$GAGSV,1,1,00,7*73
$GBGSV,1,1,00,1*76
$GNGLL,,,,,000445.00,V,N*51
$GNRMC,000446.00,V,,,,,,,010824,,,N,V*10
$GNVTG,,,,,,,,,N*2E
$GNGGA,000446.00,,,,,0,00,99.99,,,,,,*7E
$GNGSA,A,1,,,,,,,,,,,,,99.99,99.99,99.99,1*33
$GNGSA,A,1,,,,,,,,,,,,,99.99,99.99,99.99,2*30
$GNGSA,A,1,,,,,,,,,,,,,99.99,99.99,99.99,3*31
$GNGSA,A,1,,,,,,,,,,,,,99.99,99.99,99.99,4*36
$GPGSV,3,1,09,02,36,259,48,03,32,320,08,04,16,280,16,10,19,132,07,1*61
$GPGSV,3,2,09,16,11,171,14,21,36,238,23,26,36,142,03,32,26,068,46,1*6B
$GPGSV,3,3,09,44,51,200,31,1*59
$GLGSV,1,1,00,1*78
$GAGSV,1,1,00,7*73
$GBGSV,1,1,01,20,,,17,1*73
$GNGLL,,,,,000446.00,V,N*52
$GNRMC,000447.00,V,,,,,,,010824,,,N,V*11
$GNVTG,,,,,,,,,N*2E
$GNGGA,000447.00,,,,,0,00,99.99,,,,,,*7F
$GNGSA,A,1,,,,,,,,,,,,,99.99,99.99,99.99,1*33
$GNGSA,A,1,,,,,,,,,,,,,99.99,99.99,99.99,2*30
$GNGSA,A,1,,,,,,,,,,,,,99.99,99.99,99.99,3*31
$GNGSA,A,1,,,,,,,,,,,,,99.99,99.99,99.99,4*36
$GPGSV,3,1,09,02,36,259,49,03,32,320,07,04,16,280,09,10,19,132,04,1*62
$GPGSV,3,2,09,16,11,171,16,21,36,238,23,26,36,142,01,32,26,068,47,1*6A
$GPGSV,3,3,09,44,51,200,31,1*59
$GLGSV,1,1,00,1*78
$GAGSV,1,1,00,7*73
$GBGSV,1,1,00,1*76
$GNGLL,,,,,000447.00,V,N*53
$GNRMC,000448.00,V,,,,,,,010824,,,N,V*1E
$GNVTG,,,,,,,,,N*2E
$GNGGA,000448.00,,,,,0,05,2.37,,,,,,*43
$GNGSA,A,1,02,21,16,03,32,,,,,,,,2.57,2.37,1.00,1*00
$GNGSA,A,1,,,,,,,,,,,,,2.57,2.37,1.00,2*07
$GNGSA,A,1,,,,,,,,,,,,,2.57,2.37,1.00,3*06
$GNGSA,A,1,,,,,,,,,,,,,2.57,2.37,1.00,4*01
$GPGSV,3,1,09,02,36,259,46,03,32,320,07,04,16,280,06,10,19,132,04,1*62
$GPGSV,3,2,09,16,11,171,16,21,36,238,23,26,36,142,02,32,26,068,44,1*6A
$GPGSV,3,3,09,44,51,200,31,1*59
$GLGSV,1,1,00,1*78
$GAGSV,1,1,00,7*73
$GBGSV,1,1,00,1*76
$GNGLL,,,,,000448.00,V,N*5C
$GNRMC,000449.00,V,,,,,,,010824,,,N,V*1F
$GNVTG,,,,,,,,,N*2E
$GNGGA,000449.00,,,,,0,03,2.37,,,,,,*44
$GNGSA,A,1,21,16,03,,,,,,,,,,2.57,2.37,1.00,1*03
$GNGSA,A,1,,,,,,,,,,,,,2.57,2.37,1.00,2*07
$GNGSA,A,1,,,,,,,,,,,,,2.57,2.37,1.00,3*06
$GNGSA,A,1,,,,,,,,,,,,,2.57,2.37,1.00,4*01
$GPGSV,3,1,09,02,36,259,,03,32,320,11,04,16,280,07,10,19,132,07,1*65
$GPGSV,3,2,09,16,11,171,17,21,36,238,23,26,36,142,03,32,26,068,,1*6A
$GPGSV,3,3,09,44,51,200,30,1*58
$GLGSV,1,1,00,1*78
$GAGSV,1,1,00,7*73
$GBGSV,1,1,00,1*76
$GNGLL,,,,,000449.00,V,N*5D
$GNRMC,000450.00,V,,,,,,,010824,,,N,V*17
$GNVTG,,,,,,,,,N*2E
$GNGGA,000450.00,,,,,0,06,2.35,,,,,,*4B
$GNGSA,A,1,02,10,21,16,03,32,,,,,,,2.55,2.35,1.00,1*01
$GNGSA,A,1,,,,,,,,,,,,,2.55,2.35,1.00,2*07
$GNGSA,A,1,,,,,,,,,,,,,2.55,2.35,1.00,3*06
$GNGSA,A,1,,,,,,,,,,,,,2.55,2.35,1.00,4*01
$GPGSV,3,1,10,02,36,259,48,03,32,320,46,04,16,280,08,10,19,132,46,1*69
$GPGSV,3,2,10,16,11,171,16,21,36,238,22,26,36,142,04,32,26,068,47,1*66
$GPGSV,3,3,10,44,51,200,29,46,46,218,29,1*68
$GLGSV,1,1,00,1*78
$GAGSV,1,1,00,7*73
$GBGSV,1,1,00,1*76
$GNGLL,,,,,000450.00,V,N*55
$GNRMC,000451.00,V,,,,,,,010824,,,N,V*16
$GNVTG,,,,,,,,,N*2E
$GNGGA,000451.00,,,,,0,06,2.35,,,,,,*4A
$GNGSA,A,1,02,10,21,16,03,32,,,,,,,2.55,2.35,1.00,1*01
$GNGSA,A,1,,,,,,,,,,,,,2.55,2.35,1.00,2*07
$GNGSA,A,1,,,,,,,,,,,,,2.55,2.35,1.00,3*06
$GNGSA,A,1,,,,,,,,,,,,,2.55,2.35,1.00,4*01
$GPGSV,3,1,10,02,36,259,48,03,32,320,47,04,16,280,08,10,19,132,46,1*68
$GPGSV,3,2,10,16,11,171,14,21,36,238,22,26,36,142,05,32,26,068,46,1*64
$GPGSV,3,3,10,44,51,200,30,46,46,218,29,1*60
$GLGSV,1,1,00,1*78
$GAGSV,1,1,00,7*73
$GBGSV,1,1,01,20,,,04,1*71
$GNGLL,,,,,000451.00,V,N*54
$GNRMC,000452.00,V,,,,,,,010824,,,N,V*15
$GNVTG,,,,,,,,,N*2E
$GNGGA,000452.00,,,,,0,00,99.99,,,,,,*7B
$GNGSA,A,1,,,,,,,,,,,,,99.99,99.99,99.99,1*33
$GNGSA,A,1,,,,,,,,,,,,,99.99,99.99,99.99,2*30
$GNGSA,A,1,,,,,,,,,,,,,99.99,99.99,99.99,3*31
$GNGSA,A,1,,,,,,,,,,,,,99.99,99.99,99.99,4*36
$GPGSV,3,1,10,02,36,259,,03,32,320,,04,16,280,10,10,19,132,,1*6C
$GPGSV,3,2,10,16,11,171,14,21,36,238,22,26,36,142,03,32,26,068,,1*60
$GPGSV,3,3,10,44,51,200,30,46,46,218,28,1*61
$GLGSV,1,1,00,1*78
$GAGSV,1,1,00,7*73
$GBGSV,1,1,01,20,,,07,1*72
$GNGLL,,,,,000452.00,V,N*57
$GNRMC,000453.00,V,,,,,,,010824,,,N,V*14
$GNVTG,,,,,,,,,N*2E
$GNGGA,000453.00,,,,,0,06,2.35,,,,,,*48
$GNGSA,A,1,02,10,21,16,03,32,,,,,,,2.55,2.35,1.00,1*01
$GNGSA,A,1,,,,,,,,,,,,,2.55,2.35,1.00,2*07
$GNGSA,A,1,,,,,,,,,,,,,2.55,2.35,1.00,3*06
$GNGSA,A,1,,,,,,,,,,,,,2.55,2.35,1.00,4*01
$GPGSV,3,1,10,02,36,259,43,03,32,320,36,04,16,280,09,10,19,132,41,1*63
$GPGSV,3,2,10,16,11,171,14,21,36,238,21,26,36,142,04,32,26,068,43,1*63
$GPGSV,3,3,10,44,51,200,30,46,46,218,28,1*61
$GLGSV,1,1,00,1*78
$GAGSV,1,1,00,7*73
$GBGSV,1,1,01,17,,,11,1*71
$GNGLL,,,,,000453.00,V,N*56
$GNRMC,000454.00,V,,,,,,,010824,,,N,V*13
$GNVTG,,,,,,,,,N*2E
$GNGGA,000454.00,,,,,0,03,2.35,,,,,,*4A
$GNGSA,A,1,21,16,03,,,,,,,,,,2.55,2.35,1.00,1*03
$GNGSA,A,1,,,,,,,,,,,,,2.55,2.35,1.00,2*07
$GNGSA,A,1,,,,,,,,,,,,,2.55,2.35,1.00,3*06
$GNGSA,A,1,,,,,,,,,,,,,2.55,2.35,1.00,4*01
$GPGSV,3,1,10,02,36,259,26,03,32,320,46,04,16,280,09,10,19,132,20,1*60
$GPGSV,3,2,10,16,11,171,15,21,36,238,22,26,36,142,05,32,26,068,,1*67
$GPGSV,3,3,10,44,51,200,30,46,46,218,29,1*60
$GLGSV,1,1,00,1*78
$GAGSV,1,1,00,7*73
$GBGSV,1,1,01,17,,,09,1*78
$GNGLL,,,,,000454.00,V,N*51
$GNRMC,000455.00,V,,,,,,,010824,,,N,V*12
$GNVTG,,,,,,,,,N*2E
$GNGGA,000455.00,,,,,0,05,2.35,,,,,,*4D
$GNGSA,A,1,02,21,16,03,32,,,,,,,,2.55,2.35,1.00,1*00
$GNGSA,A,1,,,,,,,,,,,,,2.55,2.35,1.00,2*07
$GNGSA,A,1,,,,,,,,,,,,,2.55,2.35,1.00,3*06
$GNGSA,A,1,,,,,,,,,,,,,2.55,2.35,1.00,4*01
$GPGSV,3,1,09,02,36,259,48,03,32,320,47,04,16,280,24,10,19,132,16,1*6B
$GPGSV,3,2,09,16,11,171,14,21,36,238,21,26,36,142,05,32,26,068,46,1*6F
$GPGSV,3,3,09,51,53,182,32,1*55
$GLGSV,1,1,00,1*78
$GAGSV,1,1,00,7*73
$GBGSV,1,1,00,1*76
$GNGLL,,,,,000455.00,V,N*50
$GNRMC,000456.00,V,,,,,,,010824,,,N,V*11
$GNVTG,,,,,,,,,N*2E
$GNGGA,000456.00,,,,,0,00,99.99,,,,,,*7F
$GNGSA,A,1,,,,,,,,,,,,,99.99,99.99,99.99,1*33
$GNGSA,A,1,,,,,,,,,,,,,99.99,99.99,99.99,2*30
$GNGSA,A,1,,,,,,,,,,,,,99.99,99.99,99.99,3*31
$GNGSA,A,1,,,,,,,,,,,,,99.99,99.99,99.99,4*36
$GPGSV,3,1,09,02,36,259,43,03,32,320,42,04,16,280,41,10,19,132,13,1*63
$GPGSV,3,2,09,16,11,171,08,21,36,238,20,26,36,142,04,32,26,068,45,1*61
$GPGSV,3,3,09,51,53,182,30,1*57
$GLGSV,1,1,00,1*78
$GAGSV,1,1,00,7*73
$GBGSV,1,1,00,1*76
$GNGLL,,,,,000456.00,V,N*53
$GNRMC,235957.10,V,,,,,,,310724,,,N,V*14
$GNVTG,,,,,,,,,N*2E
$GNGGA,235957.10,,,,,0,00,99.99,,,,,,*76
$GNGSA,A,1,,,,,,,,,,,,,99.99,99.99,99.99,1*33
$GNGSA,A,1,,,,,,,,,,,,,99.99,99.99,99.99,2*30
$GNGSA,A,1,,,,,,,,,,,,,99.99,99.99,99.99,3*31
$GNGSA,A,1,,,,,,,,,,,,,99.99,99.99,99.99,4*36
$GPGSV,3,1,11,02,36,259,42,03,32,320,41,04,16,280,39,10,19,132,12,1*66
$GPGSV,3,2,11,16,11,171,03,21,36,238,22,26,36,142,06,32,26,068,41,1*67
$GPGSV,3,3,11,44,51,200,28,46,46,218,29,51,53,182,30,1*52
$GLGSV,1,1,00,1*78
$GAGSV,1,1,00,7*73
$GBGSV,1,1,00,1*76
$GNGLL,,,,,235957.10,V,N*5A
$GNRMC,235958.00,V,,,,,,,310724,,,N,V*1A
$GNVTG,,,,,,,,,N*2E
$GNGGA,235958.00,,,,,0,00,99.99,,,,,,*78
$GNGSA,A,1,,,,,,,,,,,,,99.99,99.99,99.99,1*33
$GNGSA,A,1,,,,,,,,,,,,,99.99,99.99,99.99,2*30
$GNGSA,A,1,,,,,,,,,,,,,99.99,99.99,99.99,3*31
$GNGSA,A,1,,,,,,,,,,,,,99.99,99.99,99.99,4*36
$GPGSV,3,1,11,02,36,259,49,03,32,320,48,04,16,280,45,10,19,132,12,1*6F
$GPGSV,3,2,11,16,11,171,06,21,36,238,23,26,36,142,,32,26,068,48,1*6C
$GPGSV,3,3,11,44,51,200,31,46,46,218,30,51,53,182,30,1*52
$GLGSV,1,1,00,1*78
$GAGSV,1,1,00,7*73
$GBGSV,1,1,00,1*76
$GNGLL,,,,,235958.00,V,N*54
$GNRMC,235959.00,V,,,,,,,310724,,,N,V*1B
$GNVTG,,,,,,,,,N*2E
$GNGGA,235959.00,,,,,0,00,99.99,,,,,,*79
$GNGSA,A,1,,,,,,,,,,,,,99.99,99.99,99.99,1*33
$GNGSA,A,1,,,,,,,,,,,,,99.99,99.99,99.99,2*30
$GNGSA,A,1,,,,,,,,,,,,,99.99,99.99,99.99,3*31
$GNGSA,A,1,,,,,,,,,,,,,99.99,99.99,99.99,4*36
$GPGSV,3,1,11,02,37,261,45,03,30,320,43,04,14,278,41,10,21,130,09,1*62
$GPGSV,3,2,11,16,09,172,06,21,37,240,21,26,34,144,45,32,28,066,43,1*64
$GPGSV,3,3,11,44,51,200,30,46,46,218,29,51,53,182,30,1*5B
$GLGSV,1,1,00,1*78
$GAGSV,1,1,00,7*73
$GBGSV,1,1,00,1*76
$GNGLL,,,,,235959.00,V,N*55
$GNRMC,000000.00,V,,,,,,,010824,,,N,V*16
$GNVTG,,,,,,,,,N*2E
$GNGGA,000000.00,,,,,0,00,99.99,,,,,,*78
$GNGSA,A,1,,,,,,,,,,,,,99.99,99.99,99.99,1*33
$GNGSA,A,1,,,,,,,,,,,,,99.99,99.99,99.99,2*30
$GNGSA,A,1,,,,,,,,,,,,,99.99,99.99,99.99,3*31
$GNGSA,A,1,,,,,,,,,,,,,99.99,99.99,99.99,4*36
$GPGSV,3,1,11,02,37,261,46,03,30,320,45,04,14,278,42,10,21,130,07,1*6A
$GPGSV,3,2,11,16,09,172,01,21,37,240,22,26,34,144,46,32,28,066,45,1*65
$GPGSV,3,3,11,44,51,200,29,46,46,218,30,51,53,182,29,1*53
$GLGSV,1,1,00,1*78
$GAGSV,1,1,00,7*73
$GBGSV,1,1,00,1*76
$GNGLL,,,,,000000.00,V,N*54
$GNRMC,000001.00,V,,,,,,,010824,,,N,V*17
$GNVTG,,,,,,,,,N*2E
$GNGGA,000001.00,,,,,0,00,99.99,,,,,,*79
$GNGSA,A,1,,,,,,,,,,,,,99.99,99.99,99.99,1*33
$GNGSA,A,1,,,,,,,,,,,,,99.99,99.99,99.99,2*30
$GNGSA,A,1,,,,,,,,,,,,,99.99,99.99,99.99,3*31
$GNGSA,A,1,,,,,,,,,,,,,99.99,99.99,99.99,4*36
$GPGSV,3,1,11,02,37,261,47,03,30,320,46,04,14,278,44,10,21,130,08,1*61
$GPGSV,3,2,11,16,09,172,,21,37,240,21,26,34,144,46,32,28,066,45,1*67
$GPGSV,3,3,11,44,51,200,33,46,46,218,31,51,53,182,29,1*59
$GLGSV,1,1,00,1*78
$GAGSV,1,1,00,7*73
$GBGSV,1,1,00,1*76
$GNGLL,,,,,000001.00,V,N*55
$GNRMC,000002.00,V,,,,,,,010824,,,N,V*14
$GNVTG,,,,,,,,,N*2E
$GNGGA,000002.00,,,,,0,00,99.99,,,,,,*7A
$GNGSA,A,1,,,,,,,,,,,,,99.99,99.99,99.99,1*33
$GNGSA,A,1,,,,,,,,,,,,,99.99,99.99,99.99,2*30
$GNGSA,A,1,,,,,,,,,,,,,99.99,99.99,99.99,3*31
$GNGSA,A,1,,,,,,,,,,,,,99.99,99.99,99.99,4*36
$GPGSV,3,1,10,02,37,261,48,03,30,320,47,04,14,278,44,10,21,130,09,1*6F
$GPGSV,3,2,10,16,09,172,39,21,37,240,21,26,34,144,47,32,28,066,46,1*6E
$GPGSV,3,3,10,44,51,200,29,51,53,182,28,1*6B
$GLGSV,1,1,00,1*78
$GAGSV,1,1,00,7*73
$GBGSV,1,1,00,1*76
$GNGLL,,,,,000002.00,V,N*56
$GNRMC,000003.00,V,,,,,,,010824,,,N,V*15
$GNVTG,,,,,,,,,N*2E
$GNGGA,000003.00,,,,,0,00,99.99,,,,,,*7B
$GNGSA,A,1,,,,,,,,,,,,,99.99,99.99,99.99,1*33
$GNGSA,A,1,,,,,,,,,,,,,99.99,99.99,99.99,2*30
$GNGSA,A,1,,,,,,,,,,,,,99.99,99.99,99.99,3*31
$GNGSA,A,1,,,,,,,,,,,,,99.99,99.99,99.99,4*36
$GPGSV,3,1,11,02,37,261,49,03,30,320,47,04,14,278,45,10,21,130,,1*67
$GPGSV,3,2,11,16,09,172,44,21,37,240,20,26,34,144,48,32,28,066,47,1*6A
$GPGSV,3,3,11,44,51,200,32,46,46,218,30,51,53,182,31,1*50
$GLGSV,1,1,00,1*78
$GAGSV,1,1,00,7*73
$GBGSV,1,1,00,1*76
$GNGLL,,,,,000003.00,V,N*57
$GNRMC,000004.00,V,,,,,,,010824,,,N,V*12
$GNVTG,,,,,,,,,N*2E
$GNGGA,000004.00,,,,,0,00,99.99,,,,,,*7C
$GNGSA,A,1,,,,,,,,,,,,,99.99,99.99,99.99,1*33
$GNGSA,A,1,,,,,,,,,,,,,99.99,99.99,99.99,2*30
$GNGSA,A,1,,,,,,,,,,,,,99.99,99.99,99.99,3*31
$GNGSA,A,1,,,,,,,,,,,,,99.99,99.99,99.99,4*36
$GPGSV,3,1,10,02,37,261,46,03,30,320,44,04,14,278,41,10,21,130,27,1*6B
$GPGSV,3,2,10,16,09,172,41,21,37,240,22,26,34,144,45,32,28,066,43,1*65
$GPGSV,3,3,10,44,51,200,29,51,53,182,30,1*62
$GLGSV,1,1,00,1*78
$GAGSV,1,1,00,7*73
$GBGSV,1,1,00,1*76
$GNGLL,,,,,000004.00,V,N*50
$GNRMC,000005.00,V,,,,,,,010824,,,N,V*13
$GNVTG,,,,,,,,,N*2E
$GNGGA,000005.00,,,,,0,00,99.99,,,,,,*7D
$GNGSA,A,1,,,,,,,,,,,,,99.99,99.99,99.99,1*33
$GNGSA,A,1,,,,,,,,,,,,,99.99,99.99,99.99,2*30
$GNGSA,A,1,,,,,,,,,,,,,99.99,99.99,99.99,3*31
$GNGSA,A,1,,,,,,,,,,,,,99.99,99.99,99.99,4*36
$GPGSV,3,1,09,02,37,261,47,03,30,320,45,04,14,278,43,10,21,130,24,1*62
$GPGSV,3,2,09,16,09,172,42,21,37,240,23,26,34,144,46,32,28,066,46,1*69
$GPGSV,3,3,09,51,53,182,30,1*57
$GLGSV,1,1,00,1*78
$GAGSV,1,1,00,7*73
$GBGSV,1,1,00,1*76
$GNGLL,,,,,000005.00,V,N*51
$GNRMC,000006.00,V,,,,,,,010824,,,N,V*10
$GNVTG,,,,,,,,,N*2E
$GNGGA,000006.00,,,,,0,00,99.99,,,,,,*7E
$GNGSA,A,1,,,,,,,,,,,,,99.99,99.99,99.99,1*33
$GNGSA,A,1,,,,,,,,,,,,,99.99,99.99,99.99,2*30
$GNGSA,A,1,,,,,,,,,,,,,99.99,99.99,99.99,3*31
$GNGSA,A,1,,,,,,,,,,,,,99.99,99.99,99.99,4*36
$GPGSV,3,1,09,02,37,261,48,03,30,320,46,04,14,278,44,10,21,130,21,1*6C
$GPGSV,3,2,09,16,09,172,41,21,37,240,23,26,34,144,47,32,28,066,46,1*6B
$GPGSV,3,3,09,51,53,182,29,1*5F
$GLGSV,1,1,00,1*78
$GAGSV,1,1,00,7*73
$GBGSV,1,1,00,1*76
$GNGLL,,,,,000006.00,V,N*52
$GNRMC,000007.00,V,,,,,,,010824,,,N,V*11
$GNVTG,,,,,,,,,N*2E
$GNGGA,000007.00,,,,,0,00,99.99,,,,,,*7F
$GNGSA,A,1,,,,,,,,,,,,,99.99,99.99,99.99,1*33
$GNGSA,A,1,,,,,,,,,,,,,99.99,99.99,99.99,2*30
$GNGSA,A,1,,,,,,,,,,,,,99.99,99.99,99.99,3*31
$GNGSA,A,1,,,,,,,,,,,,,99.99,99.99,99.99,4*36
$GPGSV,3,1,10,02,37,261,47,03,30,320,45,04,14,278,44,10,21,130,20,1*69
$GPGSV,3,2,10,16,09,172,43,21,37,240,23,26,34,144,46,32,28,066,46,1*60
$GPGSV,3,3,10,44,51,200,32,51,53,182,29,1*60
$GLGSV,1,1,00,1*78
$GAGSV,1,1,00,7*73
$GBGSV,1,1,00,1*76
$GNGLL,,,,,000007.00,V,N*53
$GNRMC,000008.00,V,,,,,,,010824,,,N,V*1E
$GNVTG,,,,,,,,,N*2E
$GNGGA,000008.00,,,,,0,00,99.99,,,,,,*70
$GNGSA,A,1,,,,,,,,,,,,,99.99,99.99,99.99,1*33
$GNGSA,A,1,,,,,,,,,,,,,99.99,99.99,99.99,2*30
$GNGSA,A,1,,,,,,,,,,,,,99.99,99.99,99.99,3*31
$GNGSA,A,1,,,,,,,,,,,,,99.99,99.99,99.99,4*36
$GPGSV,3,1,10,02,37,261,50,03,30,320,48,04,15,278,46,10,21,130,17,1*65
$GPGSV,3,2,10,16,09,172,44,21,37,240,23,26,34,144,49,32,28,066,48,1*66
$GPGSV,3,3,10,46,46,218,32,51,53,182,30,1*65
$GLGSV,1,1,00,1*78
$GAGSV,1,1,00,7*73
$GBGSV,1,1,00,1*76
$GNGLL,,,,,000008.00,V,N*5C
$GNRMC,000009.00,V,,,,,,,010824,,,N,V*1F
$GNVTG,,,,,,,,,N*2E
$GNGGA,000009.00,,,,,0,00,99.99,,,,,,*71
$GNGSA,A,1,,,,,,,,,,,,,99.99,99.99,99.99,1*33
$GNGSA,A,1,,,,,,,,,,,,,99.99,99.99,99.99,2*30
$GNGSA,A,1,,,,,,,,,,,,,99.99,99.99,99.99,3*31
$GNGSA,A,1,,,,,,,,,,,,,99.99,99.99,99.99,4*36
$GPGSV,3,1,09,02,37,261,49,03,30,320,48,04,15,278,45,10,21,130,11,1*60
$GPGSV,3,2,09,16,09,172,45,21,37,240,23,26,34,144,49,32,28,066,48,1*6F
$GPGSV,3,3,09,51,53,182,30,1*57
$GLGSV,1,1,00,1*78
$GAGSV,1,1,00,7*73
$GBGSV,1,1,00,1*76
$GNGLL,,,,,000009.00,V,N*5D
$GNRMC,000010.00,V,,,,,,,010824,,,N,V*17
$GNVTG,,,,,,,,,N*2E
$GNGGA,000010.00,,,,,0,00,99.99,,,,,,*79
$GNGSA,A,1,,,,,,,,,,,,,99.99,99.99,99.99,1*33
$GNGSA,A,1,,,,,,,,,,,,,99.99,99.99,99.99,2*30
$GNGSA,A,1,,,,,,,,,,,,,99.99,99.99,99.99,3*31
$GNGSA,A,1,,,,,,,,,,,,,99.99,99.99,99.99,4*36
$GPGSV,3,1,10,02,37,261,48,03,30,320,46,04,15,278,44,10,21,130,12,1*65
$GPGSV,3,2,10,16,09,172,43,21,37,240,23,26,34,144,47,32,28,066,46,1*61
$GPGSV,3,3,10,44,51,200,30,51,53,182,30,1*6A
$GLGSV,1,1,00,1*78
$GAGSV,1,1,00,7*73
$GBGSV,1,1,00,1*76
$GNGLL,,,,,000010.00,V,N*55
$GNRMC,000011.00,V,,,,,,,010824,,,N,V*16
$GNVTG,,,,,,,,,N*2E
$GNGGA,000011.00,,,,,0,00,99.99,,,,,,*78
$GNGSA,A,1,,,,,,,,,,,,,99.99,99.99,99.99,1*33
$GNGSA,A,1,,,,,,,,,,,,,99.99,99.99,99.99,2*30
$GNGSA,A,1,,,,,,,,,,,,,99.99,99.99,99.99,3*31
$GNGSA,A,1,,,,,,,,,,,,,99.99,99.99,99.99,4*36
$GPGSV,3,1,10,02,37,261,50,03,30,320,49,04,15,278,46,10,21,130,17,1*64
$GPGSV,3,2,10,16,09,172,46,21,37,240,23,26,34,144,50,32,28,066,49,1*6D
$GPGSV,3,3,10,46,46,218,31,51,53,182,30,1*66
$GLGSV,1,1,00,1*78
$GAGSV,1,1,00,7*73
$GBGSV,1,1,00,1*76
$GNGLL,,,,,000011.00,V,N*54
$GNRMC,000012.00,V,,,,,,,010824,,,N,V*15
$GNVTG,,,,,,,,,N*2E
$GNGGA,000012.00,,,,,0,00,99.99,,,,,,*7B
$GNGSA,A,1,,,,,,,,,,,,,99.99,99.99,99.99,1*33
$GNGSA,A,1,,,,,,,,,,,,,99.99,99.99,99.99,2*30
$GNGSA,A,1,,,,,,,,,,,,,99.99,99.99,99.99,3*31
$GNGSA,A,1,,,,,,,,,,,,,99.99,99.99,99.99,4*36
$GPGSV,3,1,09,02,37,261,48,03,30,320,47,04,15,278,44,10,21,130,18,1*66
$GPGSV,3,2,09,16,09,172,44,21,37,240,22,26,34,144,48,32,28,066,46,1*60
$GPGSV,3,3,09,46,46,218,30,1*55
$GLGSV,1,1,00,1*78
$GAGSV,1,1,00,7*73
$GBGSV,1,1,00,1*76
$GNGLL,,,,,000012.00,V,N*57
$GNRMC,000013.00,V,,,,,,,010824,,,N,V*14
$GNVTG,,,,,,,,,N*2E
$GNGGA,000013.00,,,,,0,00,99.99,,,,,,*7A
$GNGSA,A,1,,,,,,,,,,,,,99.99,99.99,99.99,1*33
$GNGSA,A,1,,,,,,,,,,,,,99.99,99.99,99.99,2*30
$GNGSA,A,1,,,,,,,,,,,,,99.99,99.99,99.99,3*31
$GNGSA,A,1,,,,,,,,,,,,,99.99,99.99,99.99,4*36
$GPGSV,3,1,09,02,37,261,47,03,30,320,46,04,15,278,44,10,21,130,17,1*67
$GPGSV,3,2,09,16,09,172,43,21,37,240,23,26,34,144,47,32,27,066,46,1*66
$GPGSV,3,3,09,46,46,218,29,1*5D
$GLGSV,1,1,00,1*78
$GAGSV,1,1,00,7*73
$GBGSV,1,1,00,1*76
$GNGLL,,,,,000013.00,V,N*56
$GNRMC,000014.00,V,,,,,,,010824,,,N,V*13
$GNVTG,,,,,,,,,N*2E
$GNGGA,000014.00,,,,,0,08,1.02,,,,,,*46
$GNGSA,A,1,16,02,10,26,21,04,03,32,,,,,1.87,1.02,1.57,1*08
$GNGSA,A,1,,,,,,,,,,,,,1.87,1.02,1.57,2*0E
$GNGSA,A,1,,,,,,,,,,,,,1.87,1.02,1.57,3*0F
$GNGSA,A,1,,,,,,,,,,,,,1.87,1.02,1.57,4*08
$GPGSV,3,1,09,02,37,261,47,03,30,320,45,04,15,278,43,10,21,130,21,1*66
$GPGSV,3,2,09,16,09,172,41,21,37,240,24,26,34,144,46,32,27,066,45,1*61
$GPGSV,3,3,09,46,46,218,29,1*5D
$GLGSV,1,1,00,1*78
$GAGSV,1,1,00,7*73
$GBGSV,1,1,00,1*76
$GNGLL,,,,,000014.00,V,N*51
$GNRMC,000015.00,V,,,,,,,010824,,,N,V*12
$GNVTG,,,,,,,,,N*2E
$GNGGA,000015.00,,,,,0,08,1.04,,,,,,*41
$GNGSA,A,1,16,02,10,26,21,04,03,32,,,,,2.89,1.04,2.70,1*05
$GNGSA,A,1,,,,,,,,,,,,,2.89,1.04,2.70,2*03
$GNGSA,A,1,,,,,,,,,,,,,2.89,1.04,2.70,3*02
$GNGSA,A,1,,,,,,,,,,,,,2.89,1.04,2.70,4*05
$GPGSV,3,1,09,02,37,261,50,03,30,320,48,04,15,278,45,10,21,130,22,1*68
$GPGSV,3,2,09,16,09,172,44,21,37,240,25,26,34,144,49,32,27,066,48,1*67
$GPGSV,3,3,09,46,46,218,31,1*54
$GLGSV,1,1,00,1*78
$GAGSV,1,1,00,7*73
$GBGSV,1,1,00,1*76
$GNGLL,,,,,000015.00,V,N*50
$GNRMC,000016.00,V,,,,,,,010824,,,N,V*11
$GNVTG,,,,,,,,,N*2E
$GNGGA,000016.00,,,,,0,06,1.02,,,,,,*4A
$GNGSA,A,1,16,02,26,04,03,32,,,,,,,1.87,1.02,1.57,1*0A
$GNGSA,A,1,,,,,,,,,,,,,1.87,1.02,1.57,2*0E
$GNGSA,A,1,,,,,,,,,,,,,1.87,1.02,1.57,3*0F
$GNGSA,A,1,,,,,,,,,,,,,1.87,1.02,1.57,4*08
$GPGSV,3,1,11,02,37,261,49,03,30,320,47,04,15,278,44,10,21,130,47,1*64
$GPGSV,3,2,11,16,09,172,44,21,37,240,49,26,34,144,48,32,27,066,47,1*6A
$GPGSV,3,3,11,44,51,200,32,46,46,218,31,51,53,182,31,1*51
$GLGSV,1,1,00,1*78
$GAGSV,1,1,00,7*73
$GBGSV,1,1,00,1*76
$GNGLL,,,,,000016.00,V,N*53
$GNRMC,000017.00,V,,,,,,,010824,,,N,V*10
$GNVTG,,,,,,,,,N*2E
$GNGGA,000017.00,,,,,0,08,0.92,,,,,,*4D
$GNGSA,A,1,16,02,10,26,21,04,03,32,,,,,2.53,0.92,2.36,1*0E
$GNGSA,A,1,,,,,,,,,,,,,2.53,0.92,2.36,2*08
$GNGSA,A,1,,,,,,,,,,,,,2.53,0.92,2.36,3*09
$GNGSA,A,1,,,,,,,,,,,,,2.53,0.92,2.36,4*0E
$GPGSV,3,1,09,02,37,261,48,03,30,320,46,04,15,278,44,10,21,130,46,1*6C
$GPGSV,3,2,09,16,09,172,43,21,37,240,48,26,34,144,47,32,27,066,46,1*6B
$GPGSV,3,3,09,51,53,182,31,1*56
$GLGSV,1,1,00,1*78
$GAGSV,1,1,00,7*73
$GBGSV,1,1,00,1*76
$GNGLL,,,,,000017.00,V,N*52
$GNRMC,000018.00,A,3141.67905,N,10627.01058,W,0.016,,010824,,,A,V*03
$GNVTG,,T,,M,0.016,N,0.029,K,A*31
$GNGGA,000018.00,3141.67905,N,10627.01058,W,1,08,0.92,275.9,M,-26.3,M,,*7D
$GNGSA,A,3,16,02,10,26,21,04,03,32,,,,,2.53,0.92,2.36,1*0C
$GNGSA,A,3,,,,,,,,,,,,,2.53,0.92,2.36,2*0A
$GNGSA,A,3,,,,,,,,,,,,,2.53,0.92,2.36,3*0B
$GNGSA,A,3,,,,,,,,,,,,,2.53,0.92,2.36,4*0C
$GPGSV,3,1,09,02,37,261,47,03,30,320,45,04,15,278,43,10,21,130,44,1*65
$GPGSV,3,2,09,16,09,172,41,21,37,240,46,26,34,144,46,32,27,066,44,1*64
$GPGSV,3,3,09,51,53,182,31,1*56
$GLGSV,1,1,00,1*78
$GAGSV,1,1,00,7*73
$GBGSV,1,1,00,1*76
$GNGLL,3141.67905,N,10627.01058,W,000018.00,A,A*68
$GNRMC,000019.00,A,3141.67910,N,10627.01049,W,2.622,148.20,010824,,,A,V*14
$GNVTG,148.20,T,,M,2.622,N,4.856,K,A*27
$GNGGA,000019.00,3141.67910,N,10627.01049,W,1,08,1.01,258.6,M,-26.3,M,,*73
$GNGSA,A,3,16,02,10,26,21,04,03,32,,,,,2.86,1.01,2.68,1*04
$GNGSA,A,3,,,,,,,,,,,,,2.86,1.01,2.68,2*02
$GNGSA,A,3,,,,,,,,,,,,,2.86,1.01,2.68,3*03
$GNGSA,A,3,,,,,,,,,,,,,2.86,1.01,2.68,4*04
$GPGSV,3,1,09,02,37,261,46,03,30,320,43,04,15,278,44,10,21,130,45,1*64
$GPGSV,3,2,09,16,09,172,42,21,37,240,44,26,34,144,47,32,27,066,46,1*66
$GPGSV,3,3,09,51,53,182,30,1*57
$GLGSV,1,1,00,1*78
$GAGSV,1,1,00,7*73
$GBGSV,1,1,00,1*76
$GNGLL,3141.67910,N,10627.01049,W,000019.00,A,A*6D
$GNRMC,000020.00,A,3141.68203,N,10627.00942,W,2.007,72.92,010824,,,A,V*2B
$GNVTG,72.92,T,,M,2.007,N,3.717,K,A*1A
$GNGGA,000020.00,3141.68203,N,10627.00942,W,1,08,0.92,224.0,M,-26.3,M,,*7A
$GNGSA,A,3,16,02,10,26,21,04,03,32,,,,,2.53,0.92,2.36,1*0C
$GNGSA,A,3,,,,,,,,,,,,,2.53,0.92,2.36,2*0A
$GNGSA,A,3,,,,,,,,,,,,,2.53,0.92,2.36,3*0B
$GNGSA,A,3,,,,,,,,,,,,,2.53,0.92,2.36,4*0C
$GPGSV,2,1,08,02,37,261,49,03,30,320,48,04,15,278,45,10,21,130,48,1*6C
$GPGSV,2,2,08,16,09,172,44,21,37,240,50,26,34,144,49,32,27,066,47,1*6A
$GLGSV,1,1,00,1*78
$GAGSV,1,1,00,7*73
$GBGSV,1,1,00,1*76
$GNGLL,3141.68203,N,10627.00942,W,000020.00,A,A*62
$GNRMC,000021.00,A,3141.68383,N,10627.00799,W,0.264,,010824,,,A,V*0E
$GNVTG,,T,,M,0.264,N,0.489,K,A*38
$GNGGA,000021.00,3141.68383,N,10627.00799,W,1,08,0.92,194.4,M,-26.3,M,,*76
$GNGSA,A,3,16,02,10,26,21,04,03,32,,,,,2.53,0.92,2.36,1*0C
$GNGSA,A,3,,,,,,,,,,,,,2.53,0.92,2.36,2*0A
$GNGSA,A,3,,,,,,,,,,,,,2.53,0.92,2.36,3*0B
$GNGSA,A,3,,,,,,,,,,,,,2.53,0.92,2.36,4*0C
$GPGSV,2,1,08,02,37,261,46,03,30,320,45,04,15,278,42,10,21,130,44,1*65
$GPGSV,2,2,08,16,09,172,42,21,37,240,46,26,34,144,45,32,27,066,44,1*64
$GLGSV,1,1,00,1*78
$GAGSV,1,1,00,7*73
$GBGSV,1,1,00,1*76
$GNGLL,3141.68383,N,10627.00799,W,000021.00,A,A*62
$GNRMC,000022.00,A,3141.68479,N,10627.00744,W,0.017,,010824,,,A,V*09
$GNVTG,,T,,M,0.017,N,0.031,K,A*39
$GNGGA,000022.00,3141.68479,N,10627.00744,W,1,08,0.92,175.2,M,-26.3,M,,*7E
$GNGSA,A,3,16,02,10,26,21,04,03,32,,,,,2.53,0.92,2.36,1*0C
$GNGSA,A,3,,,,,,,,,,,,,2.53,0.92,2.36,2*0A
$GNGSA,A,3,,,,,,,,,,,,,2.53,0.92,2.36,3*0B
$GNGSA,A,3,,,,,,,,,,,,,2.53,0.92,2.36,4*0C
$GPGSV,2,1,08,02,37,261,50,03,30,320,49,04,15,278,46,10,21,130,48,1*66
$GPGSV,2,2,08,16,09,172,45,21,37,240,51,26,34,144,49,32,27,066,49,1*64
$GLGSV,1,1,00,1*78
$GAGSV,1,1,00,7*73
$GBGSV,1,1,00,1*76
$GNGLL,3141.68479,N,10627.00744,W,000022.00,A,A*63
$GNRMC,000023.00,A,3141.68533,N,10627.00650,W,0.005,,010824,,,A,V*00
$GNVTG,,T,,M,0.005,N,0.008,K,A*30
$GNGGA,000023.00,3141.68533,N,10627.00650,W,1,08,0.92,158.1,M,-26.3,M,,*78
$GNGSA,A,3,16,02,10,26,21,04,03,32,,,,,2.53,0.92,2.36,1*0C
$GNGSA,A,3,,,,,,,,,,,,,2.53,0.92,2.36,2*0A
$GNGSA,A,3,,,,,,,,,,,,,2.53,0.92,2.36,3*0B
$GNGSA,A,3,,,,,,,,,,,,,2.53,0.92,2.36,4*0C
$GPGSV,2,1,08,02,37,261,49,03,30,320,47,04,15,278,44,10,21,130,46,1*6C
$GPGSV,2,2,08,16,09,172,43,21,37,240,49,26,34,144,48,32,27,066,47,1*64
$GLGSV,1,1,00,1*78
$GAGSV,1,1,00,7*73
$GBGSV,1,1,00,1*76
$GNGLL,3141.68533,N,10627.00650,W,000023.00,A,A*69
$GNRMC,000024.00,A,3141.68572,N,10627.00583,W,0.010,,010824,,,A,V*0B
$GNVTG,,T,,M,0.010,N,0.018,K,A*35
$GNGGA,000024.00,3141.68572,N,10627.00583,W,1,08,0.92,143.9,M,-26.3,M,,*75
$GNGSA,A,3,16,02,10,26,21,04,03,32,,,,,2.53,0.92,2.36,1*0C
$GNGSA,A,3,,,,,,,,,,,,,2.53,0.92,2.36,2*0A
$GNGSA,A,3,,,,,,,,,,,,,2.53,0.92,2.36,3*0B
$GNGSA,A,3,,,,,,,,,,,,,2.53,0.92,2.36,4*0C
$GPGSV,2,1,08,02,37,261,48,03,30,320,46,04,15,278,43,10,21,130,46,1*6B
$GPGSV,2,2,08,16,09,172,43,21,37,240,48,26,34,144,47,32,27,066,46,1*6B
$GLGSV,1,1,00,1*78
$GAGSV,1,1,00,7*73
$GBGSV,1,1,00,1*76
$GNGLL,3141.68572,N,10627.00583,W,000024.00,A,A*66
$GNRMC,000025.00,A,3141.68598,N,10627.00532,W,0.006,,010824,,,A,V*03
$GNVTG,,T,,M,0.006,N,0.011,K,A*3B
$GNGGA,000025.00,3141.68598,N,10627.00532,W,1,08,0.92,131.8,M,-26.3,M,,*7E
$GNGSA,A,3,16,02,10,26,21,04,03,32,,,,,2.53,0.92,2.36,1*0C
$GNGSA,A,3,,,,,,,,,,,,,2.53,0.92,2.36,2*0A
$GNGSA,A,3,,,,,,,,,,,,,2.53,0.92,2.36,3*0B
$GNGSA,A,3,,,,,,,,,,,,,2.53,0.92,2.36,4*0C
$GPGSV,2,1,08,02,37,261,48,03,30,320,47,04,15,278,44,10,21,130,45,1*6E
$GPGSV,2,2,08,16,09,172,43,21,37,240,48,26,34,144,47,32,27,066,46,1*6B
$GLGSV,1,1,00,1*78
$GAGSV,1,1,00,7*73
$GBGSV,1,1,00,1*76
$GNGLL,3141.68598,N,10627.00532,W,000025.00,A,A*69
$GNRMC,000026.00,A,3141.68616,N,10627.00504,W,0.011,,010824,,,A,V*06
$GNVTG,,T,,M,0.011,N,0.020,K,A*3F
$GNGGA,000026.00,3141.68616,N,10627.00504,W,1,08,0.92,123.9,M,-26.3,M,,*7F
$GNGSA,A,3,16,02,10,26,21,04,03,32,,,,,2.53,0.92,2.36,1*0C
$GNGSA,A,3,,,,,,,,,,,,,2.53,0.92,2.36,2*0A
$GNGSA,A,3,,,,,,,,,,,,,2.53,0.92,2.36,3*0B
$GNGSA,A,3,,,,,,,,,,,,,2.53,0.92,2.36,4*0C
$GPGSV,3,1,10,02,37,261,49,03,30,320,47,04,15,278,44,10,21,130,46,1*64
$GPGSV,3,2,10,16,09,172,43,21,37,240,49,26,34,144,47,32,27,066,46,1*62
$GPGSV,3,3,10,44,51,200,31,51,53,182,32,1*69
$GLGSV,1,1,00,1*78
$GAGSV,1,1,00,7*73
$GBGSV,1,1,00,1*76
$GNGLL,3141.68616,N,10627.00504,W,000026.00,A,A*6A
$GNRMC,000027.00,A,3141.68628,N,10627.00485,W,0.002,,010824,,,A,V*00
$GNVTG,,T,,M,0.002,N,0.003,K,A*3C
$GNGGA,000027.00,3141.68628,N,10627.00485,W,1,08,0.92,117.6,M,-26.3,M,,*73
$GNGSA,A,3,16,02,10,26,21,04,03,32,,,,,2.54,0.92,2.36,1*0B
$GNGSA,A,3,,,,,,,,,,,,,2.54,0.92,2.36,2*0D
$GNGSA,A,3,,,,,,,,,,,,,2.54,0.92,2.36,3*0C
$GNGSA,A,3,,,,,,,,,,,,,2.54,0.92,2.36,4*0B
$GPGSV,3,1,10,02,37,261,48,03,30,320,47,04,15,278,43,10,21,130,46,1*62
$GPGSV,3,2,10,16,09,172,43,21,37,240,48,26,34,144,46,32,27,066,46,1*62
$GPGSV,3,3,10,44,51,200,31,51,53,182,32,1*69
$GLGSV,1,1,00,1*78
$GAGSV,1,1,00,7*73
$GBGSV,1,1,00,1*76
$GNGLL,3141.68628,N,10627.00485,W,000027.00,A,A*6E
$GNRMC,000028.00,A,3141.68638,N,10627.00471,W,0.014,,010824,,,A,V*02
$GNVTG,,T,,M,0.014,N,0.026,K,A*3C
$GNGGA,000028.00,3141.68638,N,10627.00471,W,1,08,0.92,112.2,M,-26.3,M,,*77
$GNGSA,A,3,16,02,10,26,21,04,03,32,,,,,2.54,0.92,2.36,1*0B
$GNGSA,A,3,,,,,,,,,,,,,2.54,0.92,2.36,2*0D
$GNGSA,A,3,,,,,,,,,,,,,2.54,0.92,2.36,3*0C
$GNGSA,A,3,,,,,,,,,,,,,2.54,0.92,2.36,4*0B
$GPGSV,3,1,10,02,37,261,49,03,30,320,47,04,15,278,43,10,21,130,46,1*63
$GPGSV,3,2,10,16,09,172,42,21,37,240,48,26,34,144,47,32,27,066,46,1*62
$GPGSV,3,3,10,44,51,200,30,51,53,182,32,1*68
$GLGSV,1,1,00,1*78
$GAGSV,1,1,00,7*73
$GBGSV,1,1,00,1*76
$GNGLL,3141.68638,N,10627.00471,W,000028.00,A,A*6B
$GNRMC,000029.00,A,3141.68651,N,10627.00461,W,0.006,,010824,,,A,V*0E
$GNVTG,,T,,M,0.006,N,0.011,K,A*3B
$GNGGA,000029.00,3141.68651,N,10627.00461,W,1,08,0.92,107.1,M,-26.3,M,,*7F
$GNGSA,A,3,16,02,10,26,21,04,03,32,,,,,2.54,0.92,2.36,1*0B
$GNGSA,A,3,,,,,,,,,,,,,2.54,0.92,2.36,2*0D
$GNGSA,A,3,,,,,,,,,,,,,2.54,0.92,2.36,3*0C
$GNGSA,A,3,,,,,,,,,,,,,2.54,0.92,2.36,4*0B
$GPGSV,3,1,10,02,37,261,48,03,30,320,47,04,15,278,43,10,21,130,46,1*62
$GPGSV,3,2,10,16,09,172,42,21,37,240,47,26,34,144,46,32,27,066,45,1*6F
$GPGSV,3,3,10,44,51,200,30,51,53,182,31,1*6B
$GLGSV,1,1,01,,,,22,1*79
$GAGSV,1,1,00,7*73
$GBGSV,1,1,00,1*76
$GNGLL,3141.68651,N,10627.00461,W,000029.00,A,A*64
$GNRMC,000030.00,A,3141.68671,N,10627.00440,W,0.023,,010824,,,A,V*00
$GNVTG,,T,,M,0.023,N,0.043,K,A*3B
$GNGGA,000030.00,3141.68671,N,10627.00440,W,1,08,0.92,98.6,M,-26.3,M,,*46
$GNGSA,A,3,16,02,10,26,21,04,03,32,,,,,2.54,0.92,2.36,1*0B
$GNGSA,A,3,,,,,,,,,,,,,2.54,0.92,2.36,2*0D
$GNGSA,A,3,,,,,,,,,,,,,2.54,0.92,2.36,3*0C
$GNGSA,A,3,,,,,,,,,,,,,2.54,0.92,2.36,4*0B
$GPGSV,3,1,10,02,37,261,46,03,30,320,45,04,15,278,42,10,21,130,43,1*6A
$GPGSV,3,2,10,16,09,172,40,21,37,240,46,26,34,144,45,32,27,066,43,1*69
$GPGSV,3,3,10,44,51,200,30,51,53,182,31,1*6B
$GLGSV,1,1,01,,,,13,1*7B
$GAGSV,1,1,00,7*73
$GBGSV,1,1,00,1*76
$GNGLL,3141.68671,N,10627.00440,W,000030.00,A,A*6D
$GNRMC,000031.00,A,3141.68679,N,10627.00429,W,0.019,,010824,,,A,V*0F
$GNVTG,,T,,M,0.019,N,0.035,K,A*33
$GNGGA,000031.00,3141.68679,N,10627.00429,W,1,08,0.92,92.7,M,-26.3,M,,*4B
$GNGSA,A,3,16,02,10,26,21,04,03,32,,,,,2.54,0.92,2.37,1*0A
$GNGSA,A,3,,,,,,,,,,,,,2.54,0.92,2.37,2*0C
$GNGSA,A,3,,,,,,,,,,,,,2.54,0.92,2.37,3*0D
$GNGSA,A,3,,,,,,,,,,,,,2.54,0.92,2.37,4*0A
$GPGSV,3,1,11,02,37,261,49,03,30,320,48,04,15,278,44,10,21,130,46,1*6A
$GPGSV,3,2,11,16,09,172,42,21,37,240,49,26,34,144,48,32,27,066,46,1*6D
$GPGSV,3,3,11,44,51,200,31,46,46,218,34,51,53,182,33,1*55
$GLGSV,1,1,02,,,,22,,,,07,1*7D
$GAGSV,1,1,00,7*73
$GBGSV,1,1,00,1*76
$GNGLL,3141.68679,N,10627.00429,W,000031.00,A,A*6B
$GNRMC,000032.00,A,3141.68688,N,10627.00417,W,0.017,,010824,,,A,V*01
$GNVTG,,T,,M,0.017,N,0.031,K,A*39
$GNGGA,000032.00,3141.68688,N,10627.00417,W,1,08,0.92,86.4,M,-26.3,M,,*4D
$GNGSA,A,3,16,02,10,26,21,04,03,32,,,,,2.54,0.92,2.37,1*0A
$GNGSA,A,3,,,,,,,,,,,,,2.54,0.92,2.37,2*0C
$GNGSA,A,3,,,,,,,,,,,,,2.54,0.92,2.37,3*0D
$GNGSA,A,3,,,,,,,,,,,,,2.54,0.92,2.37,4*0A
$GPGSV,3,1,11,02,37,261,48,03,30,320,46,04,15,278,42,10,21,130,46,1*63
$GPGSV,3,2,11,16,09,172,42,21,37,240,48,26,34,144,48,32,27,066,46,1*6C
$GPGSV,3,3,11,44,51,200,31,46,46,218,32,51,53,182,33,1*53
$GLGSV,1,1,02,,,,15,,,,23,1*7F
$GAGSV,1,1,00,7*73
$GBGSV,1,1,00,1*76
$GNGLL,3141.68688,N,10627.00417,W,000032.00,A,A*6B
$GNRMC,000033.00,A,3141.68688,N,10627.00414,W,0.009,,010824,,,A,V*0C
$GNVTG,,T,,M,0.009,N,0.017,K,A*32
$GNGGA,000033.00,3141.68688,N,10627.00414,W,1,08,0.92,80.6,M,-26.3,M,,*4B
$GNGSA,A,3,16,02,10,26,21,04,03,32,,,,,2.54,0.92,2.37,1*0A
$GNGSA,A,3,,,,,,,,,,,,,2.54,0.92,2.37,2*0C
$GNGSA,A,3,,,,,,,,,,,,,2.54,0.92,2.37,3*0D
$GNGSA,A,3,,,,,,,,,,,,,2.54,0.92,2.37,4*0A
$GPGSV,3,1,11,02,37,261,47,03,30,320,45,04,15,278,41,10,21,130,44,1*6E
$GPGSV,3,2,11,16,09,172,40,21,37,240,46,26,34,144,46,32,27,066,44,1*6C
$GPGSV,3,3,11,44,51,200,30,46,46,218,31,51,53,182,32,1*50
$GLGSV,1,1,02,,,,18,,,,04,1*77
$GAGSV,1,1,00,7*73
$GBGSV,1,1,00,1*76
$GNGLL,3141.68688,N,10627.00414,W,000033.00,A,A*69
$GNRMC,000034.00,A,3141.68669,N,10627.00367,W,0.899,101.97,010824,,,A,V*16
$GNVTG,101.97,T,,M,0.899,N,1.666,K,A*22
$GNGGA,000034.00,3141.68669,N,10627.00367,W,1,08,0.92,70.5,M,-26.3,M,,*4C
$GNGSA,A,3,16,02,10,26,21,04,03,32,,,,,2.54,0.92,2.37,1*0A
$GNGSA,A,3,,,,,,,,,,,,,2.54,0.92,2.37,2*0C
$GNGSA,A,3,,,,,,,,,,,,,2.54,0.92,2.37,3*0D
$GNGSA,A,3,,,,,,,,,,,,,2.54,0.92,2.37,4*0A
$GPGSV,3,1,10,02,37,261,47,03,30,320,45,04,15,278,43,10,21,130,44,1*6D
$GPGSV,3,2,10,16,09,172,42,21,37,240,47,26,34,144,47,32,27,066,45,1*6E
$GPGSV,3,3,10,46,46,218,31,51,53,182,32,1*64
$GLGSV,1,1,02,,,,28,,,,05,1*75
$GAGSV,1,1,00,7*73
$GBGSV,1,1,00,1*76
$GNGLL,3141.68669,N,10627.00367,W,000034.00,A,A*62
$GNRMC,000035.00,A,3141.68669,N,10627.00382,W,0.028,,010824,,,A,V*0E
$GNVTG,,T,,M,0.028,N,0.052,K,A*30
$GNGGA,000035.00,3141.68669,N,10627.00382,W,1,08,0.92,66.4,M,-26.3,M,,*40
$GNGSA,A,3,16,02,10,26,21,04,03,32,,,,,2.54,0.92,2.37,1*0A
$GNGSA,A,3,,,,,,,,,,,,,2.54,0.92,2.37,2*0C
$GNGSA,A,3,,,,,,,,,,,,,2.54,0.92,2.37,3*0D
$GNGSA,A,3,,,,,,,,,,,,,2.54,0.92,2.37,4*0A
$GPGSV,3,1,11,02,37,261,49,03,30,320,49,04,15,278,45,10,21,130,47,1*6B
$GPGSV,3,2,11,16,09,172,44,21,37,240,49,26,34,144,48,32,27,066,47,1*6A
$GPGSV,3,3,11,44,51,200,32,46,46,218,32,51,53,182,32,1*51
$GLGSV,1,1,01,,,,14,1*7C
$GAGSV,1,1,00,7*73
$GBGSV,1,1,00,1*76
$GNGLL,3141.68669,N,10627.00382,W,000035.00,A,A*68
$GNRMC,000036.00,A,3141.68681,N,10627.00417,W,0.003,,010824,,,A,V*09
$GNVTG,,T,,M,0.003,N,0.005,K,A*3B
$GNGGA,000036.00,3141.68681,N,10627.00417,W,1,08,0.92,63.3,M,-26.3,M,,*4C
$GNGSA,A,3,16,02,10,26,21,04,03,32,,,,,2.54,0.92,2.37,1*0A
$GNGSA,A,3,,,,,,,,,,,,,2.54,0.92,2.37,2*0C
$GNGSA,A,3,,,,,,,,,,,,,2.54,0.92,2.37,3*0D
$GNGSA,A,3,,,,,,,,,,,,,2.54,0.92,2.37,4*0A
$GPGSV,3,1,11,02,37,261,48,03,30,320,48,04,15,278,44,10,20,130,47,1*6B
$GPGSV,3,2,11,16,09,172,43,21,37,240,48,26,34,144,47,32,27,066,47,1*63
$GPGSV,3,3,11,44,51,200,30,46,46,218,32,51,53,182,32,1*53
$GLGSV,1,1,01,,,,07,1*7E
$GAGSV,1,1,00,7*73
$GBGSV,1,1,00,1*76
$GNGLL,3141.68681,N,10627.00417,W,000036.00,A,A*66
$GNRMC,000037.00,A,3141.68696,N,10627.00455,W,0.010,,010824,,,A,V*0A
$GNVTG,,T,,M,0.010,N,0.019,K,A*34
$GNGGA,000037.00,3141.68696,N,10627.00455,W,1,08,0.92,59.1,M,-26.3,M,,*46
$GNGSA,A,3,16,02,10,26,21,04,03,32,,,,,2.54,0.92,2.37,1*0A
$GNGSA,A,3,,,,,,,,,,,,,2.54,0.92,2.37,2*0C
$GNGSA,A,3,,,,,,,,,,,,,2.54,0.92,2.37,3*0D
$GNGSA,A,3,,,,,,,,,,,,,2.54,0.92,2.37,4*0A
$GPGSV,3,1,11,02,37,261,48,03,30,320,48,04,15,278,44,10,20,130,46,1*6A
$GPGSV,3,2,11,16,09,172,43,21,37,240,48,26,34,144,47,32,27,066,46,1*62
$GPGSV,3,3,11,44,51,200,30,46,46,218,31,51,53,182,32,1*50
$GLGSV,1,1,02,,,,04,,,,25,1*79
$GAGSV,1,1,00,7*73
$GBGSV,1,1,00,1*76
$GNGLL,3141.68696,N,10627.00455,W,000037.00,A,A*67
$GNRMC,000038.00,A,3141.68702,N,10627.00494,W,0.009,,010824,,,A,V*0C
$GNVTG,,T,,M,0.009,N,0.018,K,A*3D
$GNGGA,000038.00,3141.68702,N,10627.00494,W,1,08,0.92,57.3,M,-26.3,M,,*44
$GNGSA,A,3,16,02,10,26,21,04,03,32,,,,,2.54,0.92,2.37,1*0A
$GNGSA,A,3,,,,,,,,,,,,,2.54,0.92,2.37,2*0C
$GNGSA,A,3,,,,,,,,,,,,,2.54,0.92,2.37,3*0D
$GNGSA,A,3,,,,,,,,,,,,,2.54,0.92,2.37,4*0A
$GPGSV,3,1,10,02,37,261,48,03,30,320,47,04,15,278,43,10,20,130,45,1*60
$GPGSV,3,2,10,16,09,172,42,21,37,240,48,26,34,144,47,32,27,066,46,1*62
$GPGSV,3,3,10,46,46,218,30,51,53,182,32,1*65
$GLGSV,1,1,01,,,,19,1*71
$GAGSV,1,1,00,7*73
$GBGSV,1,1,00,1*76
$GNGLL,3141.68702,N,10627.00494,W,000038.00,A,A*69
$GNRMC,000039.00,A,3141.68710,N,10627.00524,W,0.009,,010824,,,A,V*04
$GNVTG,,T,,M,0.009,N,0.017,K,A*32
$GNGGA,000039.00,3141.68710,N,10627.00524,W,1,08,0.92,56.4,M,-26.3,M,,*4A
$GNGSA,A,3,16,02,10,26,21,04,03,32,,,,,2.54,0.92,2.37,1*0A
$GNGSA,A,3,,,,,,,,,,,,,2.54,0.92,2.37,2*0C
$GNGSA,A,3,,,,,,,,,,,,,2.54,0.92,2.37,3*0D
$GNGSA,A,3,,,,,,,,,,,,,2.54,0.92,2.37,4*0A
$GPGSV,3,1,09,02,37,261,48,03,30,320,47,04,15,278,43,10,20,130,45,1*68
$GPGSV,3,2,09,16,09,172,42,21,37,240,48,26,35,143,46,32,27,066,46,1*6D
$GPGSV,3,3,09,51,53,182,33,1*54
$GLGSV,1,1,01,,,,17,1*7F
$GAGSV,1,1,00,7*73
$GBGSV,1,1,00,1*76
$GNGLL,3141.68710,N,10627.00524,W,000039.00,A,A*61
$GNRMC,000040.00,A,3141.68720,N,10627.00560,W,0.019,,010824,,,A,V*08
$GNVTG,,T,,M,0.019,N,0.036,K,A*30
$GNGGA,000040.00,3141.68720,N,10627.00560,W,1,08,0.92,54.6,M,-26.3,M,,*47
$GNGSA,A,3,16,02,10,26,21,04,03,32,,,,,2.54,0.92,2.37,1*0A
$GNGSA,A,3,,,,,,,,,,,,,2.54,0.92,2.37,2*0C
$GNGSA,A,3,,,,,,,,,,,,,2.54,0.92,2.37,3*0D
$GNGSA,A,3,,,,,,,,,,,,,2.54,0.92,2.37,4*0A
$GPGSV,3,1,09,02,37,261,47,03,30,320,47,04,15,278,43,10,20,130,46,1*64
$GPGSV,3,2,09,16,09,172,42,21,37,240,48,26,35,143,46,32,27,066,46,1*6D
$GPGSV,3,3,09,51,53,182,32,1*55
$GLGSV,1,1,00,1*78
$GAGSV,1,1,00,7*73
$GBGSV,1,1,00,1*76
$GNGLL,3141.68720,N,10627.00560,W,000040.00,A,A*6C
$GNRMC,000041.00,A,3141.68725,N,10627.00587,W,0.011,,010824,,,A,V*0D
$GNVTG,,T,,M,0.011,N,0.020,K,A*3F
$GNGGA,000041.00,3141.68725,N,10627.00587,W,1,08,0.92,53.3,M,-26.3,M,,*48
$GNGSA,A,3,16,02,10,26,21,04,03,32,,,,,2.54,0.92,2.37,1*0A
$GNGSA,A,3,,,,,,,,,,,,,2.54,0.92,2.37,2*0C
$GNGSA,A,3,,,,,,,,,,,,,2.54,0.92,2.37,3*0D
$GNGSA,A,3,,,,,,,,,,,,,2.54,0.92,2.37,4*0A
$GPGSV,3,1,09,02,37,261,49,03,30,320,48,04,15,278,44,10,20,130,47,1*63
$GPGSV,3,2,09,16,09,172,43,21,37,240,49,26,35,143,47,32,27,066,47,1*6D
$GPGSV,3,3,09,51,53,182,33,1*54
$GLGSV,1,1,00,1*78
$GAGSV,1,1,00,7*73
$GBGSV,1,1,00,1*76
$GNGLL,3141.68725,N,10627.00587,W,000041.00,A,A*61
$GNRMC,000042.00,A,3141.68724,N,10627.00613,W,0.079,,010824,,,A,V*0F
$GNVTG,,T,,M,0.079,N,0.147,K,A*31
$GNGGA,000042.00,3141.68724,N,10627.00613,W,1,08,0.92,51.1,M,-26.3,M,,*44
$GNGSA,A,3,16,02,10,26,21,04,03,32,,,,,2.54,0.92,2.37,1*0A
$GNGSA,A,3,,,,,,,,,,,,,2.54,0.92,2.37,2*0C
$GNGSA,A,3,,,,,,,,,,,,,2.54,0.92,2.37,3*0D
$GNGSA,A,3,,,,,,,,,,,,,2.54,0.92,2.37,4*0A
$GPGSV,3,1,09,02,37,261,43,03,30,320,42,04,15,278,38,10,20,130,41,1*6E
$GPGSV,3,2,09,16,09,172,36,21,37,240,42,26,35,143,42,32,27,066,40,1*66
$GPGSV,3,3,09,51,53,182,32,1*55
$GLGSV,1,1,00,1*78
$GAGSV,1,1,00,7*73
$GBGSV,1,1,00,1*76
$GNGLL,3141.68724,N,10627.00613,W,000042.00,A,A*6D
$GNRMC,000043.00,A,3141.68724,N,10627.00562,W,2.328,100.35,010824,,,A,V*17
$GNVTG,100.35,T,,M,2.328,N,4.312,K,A*2B
$GNGGA,000043.00,3141.68724,N,10627.00562,W,1,08,0.92,49.0,M,-26.3,M,,*48
$GNGSA,A,3,16,02,10,26,21,04,03,32,,,,,2.54,0.92,2.37,1*0A
$GNGSA,A,3,,,,,,,,,,,,,2.54,0.92,2.37,2*0C
$GNGSA,A,3,,,,,,,,,,,,,2.54,0.92,2.37,3*0D
$GNGSA,A,3,,,,,,,,,,,,,2.54,0.92,2.37,4*0A
$GPGSV,3,1,09,02,37,261,40,03,30,320,39,04,15,278,39,10,20,130,38,1*6E
$GPGSV,3,2,09,16,09,172,37,21,37,240,41,26,35,143,39,32,27,066,39,1*66
$GPGSV,3,3,09,51,53,182,31,1*56
$GLGSV,1,1,00,1*78
$GAGSV,1,1,00,7*73
$GBGSV,1,1,00,1*76
$GNGLL,3141.68724,N,10627.00562,W,000043.00,A,A*69
$GNRMC,000044.00,A,3141.68752,N,10627.00554,W,1.624,64.49,010824,,,A,V*26
$GNVTG,64.49,T,,M,1.624,N,3.007,K,A*19
$GNGGA,000044.00,3141.68752,N,10627.00554,W,1,08,0.92,45.7,M,-26.3,M,,*40
$GNGSA,A,3,16,02,10,26,21,04,03,32,,,,,2.54,0.92,2.37,1*0A
$GNGSA,A,3,,,,,,,,,,,,,2.54,0.92,2.37,2*0C
$GNGSA,A,3,,,,,,,,,,,,,2.54,0.92,2.37,3*0D
$GNGSA,A,3,,,,,,,,,,,,,2.54,0.92,2.37,4*0A
$GPGSV,3,1,09,02,37,261,47,03,30,320,46,04,15,278,42,10,20,130,43,1*61
$GPGSV,3,2,09,16,09,172,41,21,37,240,47,26,35,143,46,32,27,066,44,1*63
$GPGSV,3,3,09,51,53,182,31,1*56
$GLGSV,1,1,00,1*78
$GAGSV,1,1,00,7*73
$GBGSV,1,1,00,1*76
$GNGLL,3141.68752,N,10627.00554,W,000044.00,A,A*6A
$GNRMC,000045.00,A,3141.68759,N,10627.00560,W,0.079,,010824,,,A,V*05
$GNVTG,,T,,M,0.079,N,0.147,K,A*31
$GNGGA,000045.00,3141.68759,N,10627.00560,W,1,08,0.92,45.0,M,-26.3,M,,*4A
$GNGSA,A,3,16,02,10,26,21,04,03,32,,,,,2.54,0.92,2.37,1*0A
$GNGSA,A,3,,,,,,,,,,,,,2.54,0.92,2.37,2*0C
$GNGSA,A,3,,,,,,,,,,,,,2.54,0.92,2.37,3*0D
$GNGSA,A,3,,,,,,,,,,,,,2.54,0.92,2.37,4*0A
$GPGSV,3,1,11,02,37,261,48,03,30,320,47,04,15,278,42,10,20,130,46,1*63
$GPGSV,3,2,11,16,09,172,41,21,37,240,47,26,35,143,47,32,27,066,45,1*6A
$GPGSV,3,3,11,44,51,200,32,46,46,218,32,51,53,182,32,1*51
$GLGSV,1,1,00,1*78
$GAGSV,1,1,00,7*73
$GBGSV,1,1,00,1*76
$GNGLL,3141.68759,N,10627.00560,W,000045.00,A,A*67
$GNRMC,000046.00,A,3141.68760,N,10627.00579,W,0.014,,010824,,,A,V*0F
$GNVTG,,T,,M,0.014,N,0.026,K,A*3C
$GNGGA,000046.00,3141.68760,N,10627.00579,W,1,08,0.92,44.2,M,-26.3,M,,*48
$GNGSA,A,3,16,02,10,26,21,04,03,32,,,,,2.54,0.92,2.37,1*0A
$GNGSA,A,3,,,,,,,,,,,,,2.54,0.92,2.37,2*0C
$GNGSA,A,3,,,,,,,,,,,,,2.54,0.92,2.37,3*0D
$GNGSA,A,3,,,,,,,,,,,,,2.54,0.92,2.37,4*0A
$GPGSV,3,1,11,02,37,261,48,03,30,320,48,04,15,278,44,10,20,130,46,1*6A
$GPGSV,3,2,11,16,09,172,42,21,37,240,48,26,35,143,47,32,27,066,46,1*65
$GPGSV,3,3,11,44,51,200,31,46,46,218,30,51,53,182,32,1*50
$GLGSV,1,1,00,1*78
$GAGSV,1,1,00,7*73
$GBGSV,1,1,00,1*76
$GNGLL,3141.68760,N,10627.00579,W,000046.00,A,A*66
$GNRMC,000047.00,A,3141.68761,N,10627.00607,W,0.014,,010824,,,A,V*05
$GNVTG,,T,,M,0.014,N,0.026,K,A*3C
$GNGGA,000047.00,3141.68761,N,10627.00607,W,1,08,0.92,42.6,M,-26.3,M,,*40
$GNGSA,A,3,16,02,10,26,21,04,03,32,,,,,2.54,0.92,2.37,1*0A
$GNGSA,A,3,,,,,,,,,,,,,2.54,0.92,2.37,2*0C
$GNGSA,A,3,,,,,,,,,,,,,2.54,0.92,2.37,3*0D
$GNGSA,A,3,,,,,,,,,,,,,2.54,0.92,2.37,4*0A
$GPGSV,3,1,11,02,37,261,45,03,30,320,44,04,15,278,38,10,20,130,41,1*67
$GPGSV,3,2,11,16,09,172,39,21,37,240,43,26,35,143,44,32,27,066,42,1*65
$GPGSV,3,3,11,44,51,200,30,46,46,218,30,51,53,182,32,1*51
$GLGSV,1,1,00,1*78
$GAGSV,1,1,00,7*73
$GBGSV,1,1,00,1*76
$GNGLL,3141.68761,N,10627.00607,W,000047.00,A,A*6C
$GNRMC,000048.00,A,3141.68792,N,10627.00635,W,0.027,,010824,,,A,V*07
$GNVTG,,T,,M,0.027,N,0.050,K,A*3D
$GNGGA,000048.00,3141.68792,N,10627.00635,W,1,08,1.06,40.9,M,-26.3,M,,*43
$GNGSA,A,3,16,02,10,26,21,04,03,32,,,,,2.60,1.06,2.37,1*01
$GNGSA,A,3,,,,,,,,,,,,,2.60,1.06,2.37,2*07
$GNGSA,A,3,,,,,,,,,,,,,2.60,1.06,2.37,3*06
$GNGSA,A,3,,,,,,,,,,,,,2.60,1.06,2.37,4*01
$GPGSV,3,1,11,02,37,261,44,03,30,320,43,04,15,278,38,10,20,130,42,1*62
$GPGSV,3,2,11,16,09,172,38,21,37,240,44,26,35,143,44,32,27,066,42,1*63
$GPGSV,3,3,11,44,51,200,31,46,46,218,30,51,53,182,31,1*53
$GLGSV,1,1,00,1*78
$GAGSV,1,1,00,7*73
$GBGSV,1,1,00,1*76
$GNGLL,3141.68792,N,10627.00635,W,000048.00,A,A*6E
$GNRMC,000049.00,A,3141.68784,N,10627.00659,W,0.134,,010824,,,A,V*08
$GNVTG,,T,,M,0.134,N,0.249,K,A*34
$GNGGA,000049.00,3141.68784,N,10627.00659,W,1,08,0.92,39.0,M,-26.3,M,,*44
$GNGSA,A,3,16,02,10,26,21,04,03,32,,,,,2.54,0.92,2.37,1*0A
$GNGSA,A,3,,,,,,,,,,,,,2.54,0.92,2.37,2*0C
$GNGSA,A,3,,,,,,,,,,,,,2.54,0.92,2.37,3*0D
$GNGSA,A,3,,,,,,,,,,,,,2.54,0.92,2.37,4*0A
$GPGSV,3,1,11,02,37,261,42,03,30,320,40,04,15,278,38,10,20,130,40,1*65
$GPGSV,3,2,11,16,09,172,38,21,37,240,42,26,35,143,41,32,27,066,40,1*62
$GPGSV,3,3,11,44,51,200,31,46,46,218,30,51,53,182,32,1*50
$GLGSV,1,1,00,1*78
$GAGSV,1,1,00,7*73
$GBGSV,1,1,00,1*76
$GNGLL,3141.68784,N,10627.00659,W,000049.00,A,A*62
$GNRMC,000050.00,A,3141.68783,N,10627.00669,W,0.301,65.83,010824,,,A,V*26
$GNVTG,65.83,T,,M,0.301,N,0.557,K,A*1E
$GNGGA,000050.00,3141.68783,N,10627.00669,W,1,08,0.92,37.7,M,-26.3,M,,*41
$GNGSA,A,3,16,02,10,26,21,04,03,32,,,,,2.54,0.92,2.37,1*0A
$GNGSA,A,3,,,,,,,,,,,,,2.54,0.92,2.37,2*0C
$GNGSA,A,3,,,,,,,,,,,,,2.54,0.92,2.37,3*0D
$GNGSA,A,3,,,,,,,,,,,,,2.54,0.92,2.37,4*0A
$GPGSV,3,1,11,02,37,261,48,03,30,320,47,04,15,278,41,10,20,130,46,1*60
$GPGSV,3,2,11,16,09,172,40,21,37,240,47,26,35,143,46,32,27,066,46,1*69
$GPGSV,3,3,11,44,51,200,31,46,46,218,30,51,53,182,32,1*50
$GLGSV,1,1,00,1*78
$GAGSV,1,1,00,7*73
$GBGSV,1,1,00,1*76
$GNGLL,3141.68783,N,10627.00669,W,000050.00,A,A*6E
$GNRMC,000051.00,A,3141.68779,N,10627.00685,W,0.040,,010824,,,A,V*00
$GNVTG,,T,,M,0.040,N,0.075,K,A*3B
$GNGGA,000051.00,3141.68779,N,10627.00685,W,1,08,0.92,36.6,M,-26.3,M,,*47
$GNGSA,A,3,16,02,10,26,21,04,03,32,,,,,2.54,0.92,2.37,1*0A
$GNGSA,A,3,,,,,,,,,,,,,2.54,0.92,2.37,2*0C
$GNGSA,A,3,,,,,,,,,,,,,2.54,0.92,2.37,3*0D
$GNGSA,A,3,,,,,,,,,,,,,2.54,0.92,2.37,4*0A
$GPGSV,3,1,11,02,37,261,47,03,30,320,44,04,15,278,38,10,20,130,44,1*60
$GPGSV,3,2,11,16,09,172,37,21,37,240,45,26,35,143,44,32,27,066,43,1*6C
$GPGSV,3,3,11,44,51,200,30,46,46,218,30,51,53,182,31,1*52
$GLGSV,1,1,00,1*78
$GAGSV,1,1,00,7*73
$GBGSV,1,1,00,1*76
$GNGLL,3141.68779,N,10627.00685,W,000051.00,A,A*68
$GNRMC,000052.00,A,3141.68778,N,10627.00698,W,0.003,,010824,,,A,V*09
$GNVTG,,T,,M,0.003,N,0.005,K,A*3B
$GNGGA,000052.00,3141.68778,N,10627.00698,W,1,08,0.92,35.7,M,-26.3,M,,*4B
$GNGSA,A,3,16,02,10,26,21,04,03,32,,,,,2.54,0.92,2.37,1*0A
$GNGSA,A,3,,,,,,,,,,,,,2.54,0.92,2.37,2*0C
$GNGSA,A,3,,,,,,,,,,,,,2.54,0.92,2.37,3*0D
$GNGSA,A,3,,,,,,,,,,,,,2.54,0.92,2.37,4*0A
$GPGSV,3,1,09,02,37,261,46,03,30,320,45,04,15,278,39,10,20,130,44,1*68
$GPGSV,3,2,09,16,09,172,38,21,37,240,46,26,35,143,45,32,27,066,44,1*6F
$GPGSV,3,3,09,46,46,218,30,1*55
$GLGSV,1,1,00,1*78
$GAGSV,1,1,00,7*73
$GBGSV,1,1,00,1*76
$GNGLL,3141.68778,N,10627.00698,W,000052.00,A,A*66
$GNRMC,000053.00,A,3141.68769,N,10627.00694,W,0.008,,010824,,,A,V*0F
$GNVTG,,T,,M,0.008,N,0.015,K,A*31
$GNGGA,000053.00,3141.68769,N,10627.00694,W,1,08,0.95,34.8,M,-26.3,M,,*4F
$GNGSA,A,3,16,02,10,26,21,04,03,32,,,,,2.58,0.95,2.40,1*01
$GNGSA,A,3,,,,,,,,,,,,,2.58,0.95,2.40,2*07
$GNGSA,A,3,,,,,,,,,,,,,2.58,0.95,2.40,3*06
$GNGSA,A,3,,,,,,,,,,,,,2.58,0.95,2.40,4*01
$GPGSV,3,1,09,02,37,261,46,03,30,320,46,04,15,278,39,10,20,130,44,1*6B
$GPGSV,3,2,09,16,09,172,38,21,37,240,46,26,35,143,45,32,27,066,44,1*6F
$GPGSV,3,3,09,46,46,218,31,1*54
$GLGSV,1,1,00,1*78
$GAGSV,1,1,00,7*73
$GBGSV,1,1,00,1*76
$GNGLL,3141.68769,N,10627.00694,W,000053.00,A,A*6B
$GNRMC,000054.00,A,3141.68762,N,10627.00694,W,0.008,,010824,,,A,V*03
$GNVTG,,T,,M,0.008,N,0.016,K,A*32
$GNGGA,000054.00,3141.68762,N,10627.00694,W,1,08,0.92,33.6,M,-26.3,M,,*4D
$GNGSA,A,3,16,02,10,26,21,04,03,32,,,,,2.55,0.92,2.37,1*0B
$GNGSA,A,3,,,,,,,,,,,,,2.55,0.92,2.37,2*0D
$GNGSA,A,3,,,,,,,,,,,,,2.55,0.92,2.37,3*0C
$GNGSA,A,3,,,,,,,,,,,,,2.55,0.92,2.37,4*0B
$GPGSV,3,1,09,02,37,261,47,03,30,320,46,04,15,278,40,10,20,130,45,1*65
$GPGSV,3,2,09,16,09,172,38,21,37,240,47,26,35,143,45,32,27,066,44,1*6E
$GPGSV,3,3,09,46,46,218,30,1*55
$GLGSV,1,1,00,1*78
$GAGSV,1,1,00,7*73
$GBGSV,1,1,01,08,,,18,1*76
$GNGLL,3141.68762,N,10627.00694,W,000054.00,A,A*67
$GNRMC,000055.00,A,3141.68756,N,10627.00692,W,0.016,,010824,,,A,V*0C
$GNVTG,,T,,M,0.016,N,0.030,K,A*39
$GNGGA,000055.00,3141.68756,N,10627.00692,W,1,08,0.92,32.1,M,-26.3,M,,*4B
$GNGSA,A,3,16,02,10,26,21,04,03,32,,,,,2.55,0.92,2.38,1*04
$GNGSA,A,3,,,,,,,,,,,,,2.55,0.92,2.38,2*02
$GNGSA,A,3,,,,,,,,,,,,,2.55,0.92,2.38,3*03
$GNGSA,A,3,,,,,,,,,,,,,2.55,0.92,2.38,4*04
$GPGSV,3,1,09,02,37,261,47,03,30,320,47,04,15,278,40,10,20,130,45,1*64
$GPGSV,3,2,09,16,09,172,39,21,37,240,47,26,35,143,45,32,27,066,44,1*6F
$GPGSV,3,3,09,46,46,218,30,1*55
$GLGSV,1,1,00,1*78
$GAGSV,1,1,00,7*73
$GBGSV,1,1,00,1*76
$GNGLL,3141.68756,N,10627.00692,W,000055.00,A,A*67
$GNRMC,000056.00,A,3141.68750,N,10627.00696,W,0.007,,010824,,,A,V*0D
$GNVTG,,T,,M,0.007,N,0.014,K,A*3F
$GNGGA,000056.00,3141.68750,N,10627.00696,W,1,08,0.92,30.8,M,-26.3,M,,*41
$GNGSA,A,3,16,02,10,26,21,04,03,32,,,,,2.55,0.92,2.38,1*04
$GNGSA,A,3,,,,,,,,,,,,,2.55,0.92,2.38,2*02
$GNGSA,A,3,,,,,,,,,,,,,2.55,0.92,2.38,3*03
$GNGSA,A,3,,,,,,,,,,,,,2.55,0.92,2.38,4*04
$GPGSV,3,1,10,02,37,261,48,03,30,320,47,04,15,278,40,10,20,130,46,1*60
$GPGSV,3,2,10,16,09,172,40,21,37,240,48,26,35,143,47,32,27,066,45,1*65
$GPGSV,3,3,10,44,51,200,30,51,53,182,32,1*68
$GLGSV,1,1,00,1*78
$GAGSV,1,1,00,7*73
$GBGSV,1,1,00,1*76
$GNGLL,3141.68750,N,10627.00696,W,000056.00,A,A*66
$GNRMC,000057.00,A,3141.68741,N,10627.00690,W,0.003,,010824,,,A,V*0E
$GNVTG,,T,,M,0.003,N,0.006,K,A*38
$GNGGA,000057.00,3141.68741,N,10627.00690,W,1,08,0.95,29.3,M,-26.3,M,,*42
$GNGSA,A,3,16,02,10,26,21,04,03,32,,,,,2.58,0.95,2.40,1*01
$GNGSA,A,3,,,,,,,,,,,,,2.58,0.95,2.40,2*07
$GNGSA,A,3,,,,,,,,,,,,,2.58,0.95,2.40,3*06
$GNGSA,A,3,,,,,,,,,,,,,2.58,0.95,2.40,4*01
$GPGSV,3,1,10,02,37,261,48,03,30,320,46,04,15,278,39,10,20,130,45,1*6C
$GPGSV,3,2,10,16,09,172,39,21,37,240,47,26,35,143,46,32,27,066,44,1*64
$GPGSV,3,3,10,44,51,200,30,51,53,182,32,1*68
$GLGSV,1,1,00,1*78
$GAGSV,1,1,00,7*73
$GBGSV,1,1,00,1*76
$GNGLL,3141.68741,N,10627.00690,W,000057.00,A,A*61
$GNRMC,000058.00,A,3141.68736,N,10627.00692,W,0.023,,010824,,,A,V*01
$GNVTG,,T,,M,0.023,N,0.043,K,A*3B
$GNGGA,000058.00,3141.68736,N,10627.00692,W,1,08,0.92,28.2,M,-26.3,M,,*48
$GNGSA,A,3,16,02,10,26,21,04,03,32,,,,,2.55,0.92,2.38,1*04
$GNGSA,A,3,,,,,,,,,,,,,2.55,0.92,2.38,2*02
$GNGSA,A,3,,,,,,,,,,,,,2.55,0.92,2.38,3*03
$GNGSA,A,3,,,,,,,,,,,,,2.55,0.92,2.38,4*04
$GPGSV,3,1,09,02,37,261,48,03,30,320,47,04,15,278,39,10,20,130,45,1*65
$GPGSV,3,2,09,16,09,172,39,21,37,240,47,26,35,143,46,32,27,066,44,1*6C
$GPGSV,3,3,09,51,53,182,32,1*55
$GLGSV,1,1,00,1*78
$GAGSV,1,1,00,7*73
$GBGSV,1,1,00,1*76
$GNGLL,3141.68736,N,10627.00692,W,000058.00,A,A*6C
$GNRMC,000059.00,A,3141.68732,N,10627.00695,W,0.020,,010824,,,A,V*00
$GNVTG,,T,,M,0.020,N,0.037,K,A*3B
$GNGGA,000059.00,3141.68732,N,10627.00695,W,1,08,0.92,27.2,M,-26.3,M,,*45
$GNGSA,A,3,16,02,10,26,21,04,03,32,,,,,2.55,0.92,2.38,1*04
$GNGSA,A,3,,,,,,,,,,,,,2.55,0.92,2.38,2*02
$GNGSA,A,3,,,,,,,,,,,,,2.55,0.92,2.38,3*03
$GNGSA,A,3,,,,,,,,,,,,,2.55,0.92,2.38,4*04
$GPGSV,3,1,09,02,37,261,47,03,30,320,46,04,15,278,39,10,20,130,45,1*6B
$GPGSV,3,2,09,16,09,172,39,21,37,240,47,26,35,143,46,32,27,066,44,1*6C
$GPGSV,3,3,09,51,53,182,32,1*55
$GLGSV,1,1,00,1*78
$GAGSV,1,1,00,7*73
$GBGSV,1,1,00,1*76
$GNGLL,3141.68732,N,10627.00695,W,000059.00,A,A*6E
$GNRMC,000100.00,A,3141.68729,N,10627.00701,W,0.006,,010824,,,A,V*0F
$GNVTG,,T,,M,0.006,N,0.011,K,A*3B
$GNGGA,000100.00,3141.68729,N,10627.00701,W,1,08,0.92,26.2,M,-26.3,M,,*4F
$GNGSA,A,3,16,02,10,26,21,04,03,32,,,,,2.55,0.92,2.38,1*04
$GNGSA,A,3,,,,,,,,,,,,,2.55,0.92,2.38,2*02
$GNGSA,A,3,,,,,,,,,,,,,2.55,0.92,2.38,3*03
$GNGSA,A,3,,,,,,,,,,,,,2.55,0.92,2.38,4*04
$GPGSV,3,1,09,02,37,261,47,03,30,320,46,04,15,278,39,10,20,130,44,1*6A
$GPGSV,3,2,09,16,09,172,38,21,37,240,46,26,35,143,45,32,27,066,44,1*6F
$GPGSV,3,3,09,51,53,182,32,1*55
$GLGSV,1,1,00,1*78
$GAGSV,1,1,00,7*73
$GBGSV,1,1,00,1*76
$GNGLL,3141.68729,N,10627.00701,W,000100.00,A,A*65
$GNRMC,000101.00,A,3141.68726,N,10627.00710,W,0.015,,010824,,,A,V*03
$GNVTG,,T,,M,0.015,N,0.028,K,A*33
$GNGGA,000101.00,3141.68726,N,10627.00710,W,1,08,0.92,25.4,M,-26.3,M,,*44
$GNGSA,A,3,16,02,10,26,21,04,03,32,,,,,2.55,0.92,2.38,1*04
$GNGSA,A,3,,,,,,,,,,,,,2.55,0.92,2.38,2*02
$GNGSA,A,3,,,,,,,,,,,,,2.55,0.92,2.38,3*03
$GNGSA,A,3,,,,,,,,,,,,,2.55,0.92,2.38,4*04
$GPGSV,3,1,09,02,37,261,48,03,30,320,46,04,15,278,39,10,20,130,45,1*64
$GPGSV,3,2,09,16,09,172,38,21,37,240,47,26,35,143,46,32,27,066,44,1*6D
$GPGSV,3,3,09,51,53,182,33,1*54
$GLGSV,1,1,00,1*78
$GAGSV,1,1,00,7*73
$GBGSV,1,1,00,1*76
$GNGLL,3141.68726,N,10627.00710,W,000101.00,A,A*6B
$GNRMC,000102.00,A,3141.68725,N,10627.00720,W,0.006,,010824,,,A,V*02
$GNVTG,,T,,M,0.006,N,0.011,K,A*3B
$GNGGA,000102.00,3141.68725,N,10627.00720,W,1,08,0.92,24.6,M,-26.3,M,,*44
$GNGSA,A,3,16,02,10,26,21,04,03,32,,,,,2.55,0.92,2.38,1*04
$GNGSA,A,3,,,,,,,,,,,,,2.55,0.92,2.38,2*02
$GNGSA,A,3,,,,,,,,,,,,,2.55,0.92,2.38,3*03
$GNGSA,A,3,,,,,,,,,,,,,2.55,0.92,2.38,4*04
$GPGSV,3,1,11,02,37,261,47,03,30,320,46,04,15,279,38,10,20,130,45,1*62
$GPGSV,3,2,11,16,09,172,38,21,37,240,47,26,35,143,46,32,27,066,43,1*63
$GPGSV,3,3,11,44,51,200,32,46,46,218,32,51,53,182,33,1*50
$GLGSV,1,1,00,1*78
$GAGSV,1,1,00,7*73
$GBGSV,1,1,00,1*76
$GNGLL,3141.68725,N,10627.00720,W,000102.00,A,A*68
$GNRMC,000103.00,A,3141.68723,N,10627.00733,W,0.018,,010824,,,A,V*08
$GNVTG,,T,,M,0.018,N,0.034,K,A*33
$GNGGA,000103.00,3141.68723,N,10627.00733,W,1,08,0.92,23.8,M,-26.3,M,,*48
$GNGSA,A,3,16,02,10,26,21,04,03,32,,,,,2.55,0.92,2.38,1*04
$GNGSA,A,3,,,,,,,,,,,,,2.55,0.92,2.38,2*02
$GNGSA,A,3,,,,,,,,,,,,,2.55,0.92,2.38,3*03
$GNGSA,A,3,,,,,,,,,,,,,2.55,0.92,2.38,4*04
$GPGSV,3,1,11,02,37,261,47,03,30,320,46,04,15,279,38,10,20,130,45,1*62
$GPGSV,3,2,11,16,09,172,38,21,37,240,47,26,35,143,46,32,27,066,44,1*64
$GPGSV,3,3,11,44,51,200,30,46,46,218,32,51,53,182,33,1*52
$GLGSV,1,1,00,1*78
$GAGSV,1,1,00,7*73
$GBGSV,1,1,00,1*76
$GNGLL,3141.68723,N,10627.00733,W,000103.00,A,A*6D
$GNRMC,000104.00,A,3141.68721,N,10627.00745,W,0.012,,010824,,,A,V*06
$GNVTG,,T,,M,0.012,N,0.023,K,A*3F
$GNGGA,000104.00,3141.68721,N,10627.00745,W,1,08,0.92,22.9,M,-26.3,M,,*4C
$GNGSA,A,3,16,02,10,26,21,04,03,32,,,,,2.55,0.92,2.38,1*04
$GNGSA,A,3,,,,,,,,,,,,,2.55,0.92,2.38,2*02
$GNGSA,A,3,,,,,,,,,,,,,2.55,0.92,2.38,3*03
$GNGSA,A,3,,,,,,,,,,,,,2.55,0.92,2.38,4*04
$GPGSV,3,1,10,02,37,261,47,03,30,320,46,04,15,279,38,10,20,130,45,1*63
$GPGSV,3,2,10,16,09,172,37,21,37,240,47,26,35,143,45,32,27,066,44,1*69
$GPGSV,3,3,10,46,46,218,32,51,53,182,33,1*66
$GLGSV,1,1,00,1*78
$GAGSV,1,1,00,7*73
$GBGSV,1,1,00,1*76
$GNGLL,3141.68721,N,10627.00745,W,000104.00,A,A*69
